{
"type": "FeatureCollection",
"features": [
{ "type": "Feature", "properties": { "cp_ville": "01000 Bourg-en-Bresse", "Région": "Auvergne-Rhône-Alpes", "Département": "Ain", "Gazole_prix": 1.8455714285714289, "SP98_prix": 1.8833333333333331, "SP95_prix": 1.8334, "E85_prix": 0.9915, "E10_prix": 1.765, "GPLc_prix": null, "Latitude": 46.203797228571432, "Longitude": 5.2366706857142855, "Apparition": 7 }, "geometry": { "type": "Point", "coordinates": [ 5.236670685714286, 46.203797228571432 ] } },
{ "type": "Feature", "properties": { "cp_ville": "01000 Saint-Denis-lès-Bourg", "Région": "Auvergne-Rhône-Alpes", "Département": "Ain", "Gazole_prix": 1.9005, "SP98_prix": 1.956, "SP95_prix": 1.836, "E85_prix": 0.996, "E10_prix": 1.842, "GPLc_prix": null, "Latitude": 46.201, "Longitude": 5.199, "Apparition": 2 }, "geometry": { "type": "Point", "coordinates": [ 5.199, 46.201 ] } },
{ "type": "Feature", "properties": { "cp_ville": "01090 Montceaux", "Région": "Auvergne-Rhône-Alpes", "Département": "Ain", "Gazole_prix": 1.867, "SP98_prix": 1.883, "SP95_prix": null, "E85_prix": null, "E10_prix": 1.786, "GPLc_prix": null, "Latitude": 46.096, "Longitude": 4.775, "Apparition": 1 }, "geometry": { "type": "Point", "coordinates": [ 4.775, 46.096 ] } },
{ "type": "Feature", "properties": { "cp_ville": "01100 Arbent", "Région": "Auvergne-Rhône-Alpes", "Département": "Ain", "Gazole_prix": 1.91, "SP98_prix": 2.08, "SP95_prix": 1.9385, "E85_prix": null, "E10_prix": 1.833, "GPLc_prix": 0.969, "Latitude": 46.27802, "Longitude": 5.66141, "Apparition": 2 }, "geometry": { "type": "Point", "coordinates": [ 5.66141, 46.27802 ] } },
{ "type": "Feature", "properties": { "cp_ville": "01100 Oyonnax", "Région": "Auvergne-Rhône-Alpes", "Département": "Ain", "Gazole_prix": 1.86775, "SP98_prix": 1.9883333333333333, "SP95_prix": 1.85, "E85_prix": 0.99833333333333341, "E10_prix": 1.796, "GPLc_prix": 0.964, "Latitude": 46.25725, "Longitude": 5.647, "Apparition": 4 }, "geometry": { "type": "Point", "coordinates": [ 5.647, 46.25725 ] } },
{ "type": "Feature", "properties": { "cp_ville": "01110 Plateau d'Hauteville", "Région": "Auvergne-Rhône-Alpes", "Département": "Ain", "Gazole_prix": 1.835, "SP98_prix": 1.859, "SP95_prix": null, "E85_prix": null, "E10_prix": 1.779, "GPLc_prix": null, "Latitude": 45.978, "Longitude": 5.599, "Apparition": 1 }, "geometry": { "type": "Point", "coordinates": [ 5.599, 45.978 ] } },
{ "type": "Feature", "properties": { "cp_ville": "01120 Dagneux", "Région": "Auvergne-Rhône-Alpes", "Département": "Ain", "Gazole_prix": 2.016, "SP98_prix": 2.0765, "SP95_prix": null, "E85_prix": 1.239, "E10_prix": 2.0165, "GPLc_prix": null, "Latitude": 45.846, "Longitude": 5.072, "Apparition": 2 }, "geometry": { "type": "Point", "coordinates": [ 5.072, 45.846 ] } },
{ "type": "Feature", "properties": { "cp_ville": "01120 La Boisse", "Région": "Auvergne-Rhône-Alpes", "Département": "Ain", "Gazole_prix": 1.929, "SP98_prix": 1.989, "SP95_prix": null, "E85_prix": null, "E10_prix": 1.879, "GPLc_prix": null, "Latitude": 45.846, "Longitude": 5.041, "Apparition": 1 }, "geometry": { "type": "Point", "coordinates": [ 5.041, 45.846 ] } },
{ "type": "Feature", "properties": { "cp_ville": "01120 Montluel", "Région": "Auvergne-Rhône-Alpes", "Département": "Ain", "Gazole_prix": 1.7755, "SP98_prix": 1.81, "SP95_prix": null, "E85_prix": 0.999, "E10_prix": 1.759, "GPLc_prix": null, "Latitude": 45.85, "Longitude": 5.0535, "Apparition": 2 }, "geometry": { "type": "Point", "coordinates": [ 5.0535, 45.85 ] } },
{ "type": "Feature", "properties": { "cp_ville": "01130 Le Poizat-Lalleyriat", "Région": "Auvergne-Rhône-Alpes", "Département": "Ain", "Gazole_prix": 1.93, "SP98_prix": 1.98, "SP95_prix": 1.96, "E85_prix": null, "E10_prix": null, "GPLc_prix": null, "Latitude": 46.167, "Longitude": 5.691, "Apparition": 1 }, "geometry": { "type": "Point", "coordinates": [ 5.691, 46.167 ] } },
{ "type": "Feature", "properties": { "cp_ville": "01130 Nantua", "Région": "Auvergne-Rhône-Alpes", "Département": "Ain", "Gazole_prix": 1.858, "SP98_prix": 1.909, "SP95_prix": null, "E85_prix": null, "E10_prix": 1.817, "GPLc_prix": null, "Latitude": 46.158, "Longitude": 5.604, "Apparition": 1 }, "geometry": { "type": "Point", "coordinates": [ 5.604, 46.158 ] } },
{ "type": "Feature", "properties": { "cp_ville": "01140 Saint-Didier-sur-Chalaronne", "Région": "Auvergne-Rhône-Alpes", "Département": "Ain", "Gazole_prix": 1.789, "SP98_prix": null, "SP95_prix": null, "E85_prix": 0.999, "E10_prix": 1.739, "GPLc_prix": null, "Latitude": 46.18, "Longitude": 4.817, "Apparition": 1 }, "geometry": { "type": "Point", "coordinates": [ 4.817, 46.18 ] } },
{ "type": "Feature", "properties": { "cp_ville": "01150 Lagnieu", "Région": "Auvergne-Rhône-Alpes", "Département": "Ain", "Gazole_prix": 1.829, "SP98_prix": 1.859, "SP95_prix": null, "E85_prix": null, "E10_prix": 1.779, "GPLc_prix": null, "Latitude": 45.902, "Longitude": 5.346, "Apparition": 1 }, "geometry": { "type": "Point", "coordinates": [ 5.346, 45.902 ] } },
{ "type": "Feature", "properties": { "cp_ville": "01150 Saint-Vulbas", "Région": "Auvergne-Rhône-Alpes", "Département": "Ain", "Gazole_prix": 1.934, "SP98_prix": 1.99, "SP95_prix": null, "E85_prix": 1.099, "E10_prix": 1.894, "GPLc_prix": null, "Latitude": 45.839, "Longitude": 5.278, "Apparition": 1 }, "geometry": { "type": "Point", "coordinates": [ 5.278, 45.839 ] } },
{ "type": "Feature", "properties": { "cp_ville": "01160 Neuville-sur-Ain", "Région": "Auvergne-Rhône-Alpes", "Département": "Ain", "Gazole_prix": 1.799, "SP98_prix": 1.855, "SP95_prix": null, "E85_prix": 0.998, "E10_prix": 1.769, "GPLc_prix": null, "Latitude": 46.074, "Longitude": 5.376, "Apparition": 1 }, "geometry": { "type": "Point", "coordinates": [ 5.376, 46.074 ] } },
{ "type": "Feature", "properties": { "cp_ville": "01160 Pont-d'Ain", "Région": "Auvergne-Rhône-Alpes", "Département": "Ain", "Gazole_prix": 1.8325, "SP98_prix": 1.882, "SP95_prix": 1.81, "E85_prix": 1.06, "E10_prix": 1.798, "GPLc_prix": null, "Latitude": 46.046780182799999, "Longitude": 5.3398644035850005, "Apparition": 2 }, "geometry": { "type": "Point", "coordinates": [ 5.339864403585, 46.046780182799999 ] } },
{ "type": "Feature", "properties": { "cp_ville": "01170 Gex", "Région": "Auvergne-Rhône-Alpes", "Département": "Ain", "Gazole_prix": 1.9053333333333331, "SP98_prix": 1.917, "SP95_prix": 1.898, "E85_prix": 0.998, "E10_prix": 1.851, "GPLc_prix": null, "Latitude": 46.33159, "Longitude": 6.0621133333333335, "Apparition": 3 }, "geometry": { "type": "Point", "coordinates": [ 6.062113333333333, 46.33159 ] } },
{ "type": "Feature", "properties": { "cp_ville": "01170 Ségny", "Région": "Auvergne-Rhône-Alpes", "Département": "Ain", "Gazole_prix": 1.775, "SP98_prix": 1.778, "SP95_prix": 1.752, "E85_prix": 0.981, "E10_prix": 1.724, "GPLc_prix": null, "Latitude": 46.293, "Longitude": 6.079, "Apparition": 1 }, "geometry": { "type": "Point", "coordinates": [ 6.079, 46.293 ] } },
{ "type": "Feature", "properties": { "cp_ville": "01190 Saint-Bénigne", "Région": "Auvergne-Rhône-Alpes", "Département": "Ain", "Gazole_prix": 1.929, "SP98_prix": 1.909, "SP95_prix": 1.879, "E85_prix": null, "E10_prix": null, "GPLc_prix": null, "Latitude": 46.442, "Longitude": 4.97, "Apparition": 1 }, "geometry": { "type": "Point", "coordinates": [ 4.97, 46.442 ] } },
{ "type": "Feature", "properties": { "cp_ville": "01200 Valserhône", "Région": "Auvergne-Rhône-Alpes", "Département": "Ain", "Gazole_prix": 1.904, "SP98_prix": 2.059, "SP95_prix": 1.839, "E85_prix": null, "E10_prix": 1.884, "GPLc_prix": null, "Latitude": 46.115, "Longitude": 5.8175, "Apparition": 2 }, "geometry": { "type": "Point", "coordinates": [ 5.8175, 46.115 ] } },
{ "type": "Feature", "properties": { "cp_ville": "01210 Ferney-Voltaire", "Région": "Auvergne-Rhône-Alpes", "Département": "Ain", "Gazole_prix": 1.825, "SP98_prix": 1.895, "SP95_prix": 1.8225, "E85_prix": 0.97, "E10_prix": 1.739, "GPLc_prix": null, "Latitude": 46.248515, "Longitude": 6.106585, "Apparition": 2 }, "geometry": { "type": "Point", "coordinates": [ 6.106585, 46.248515 ] } },
{ "type": "Feature", "properties": { "cp_ville": "01220 Divonne-les-Bains", "Région": "Auvergne-Rhône-Alpes", "Département": "Ain", "Gazole_prix": 1.885, "SP98_prix": 1.877, "SP95_prix": 1.839, "E85_prix": null, "E10_prix": null, "GPLc_prix": null, "Latitude": 46.343, "Longitude": 6.141, "Apparition": 1 }, "geometry": { "type": "Point", "coordinates": [ 6.141, 46.343 ] } },
{ "type": "Feature", "properties": { "cp_ville": "01230 Saint-Rambert-en-Bugey", "Région": "Auvergne-Rhône-Alpes", "Département": "Ain", "Gazole_prix": 1.87, "SP98_prix": 1.9, "SP95_prix": 1.85, "E85_prix": null, "E10_prix": null, "GPLc_prix": null, "Latitude": 45.942, "Longitude": 5.432, "Apparition": 1 }, "geometry": { "type": "Point", "coordinates": [ 5.432, 45.942 ] } },
{ "type": "Feature", "properties": { "cp_ville": "01230 Torcieu", "Région": "Auvergne-Rhône-Alpes", "Département": "Ain", "Gazole_prix": 1.97, "SP98_prix": null, "SP95_prix": 1.97, "E85_prix": null, "E10_prix": null, "GPLc_prix": null, "Latitude": 45.921, "Longitude": 5.394, "Apparition": 1 }, "geometry": { "type": "Point", "coordinates": [ 5.394, 45.921 ] } },
{ "type": "Feature", "properties": { "cp_ville": "01250 Ceyzériat", "Région": "Auvergne-Rhône-Alpes", "Département": "Ain", "Gazole_prix": 1.835, "SP98_prix": 1.89, "SP95_prix": null, "E85_prix": 0.998, "E10_prix": 1.758, "GPLc_prix": null, "Latitude": 46.179720878139001, "Longitude": 5.3249462851003999, "Apparition": 1 }, "geometry": { "type": "Point", "coordinates": [ 5.3249462851004, 46.179720878139001 ] } },
{ "type": "Feature", "properties": { "cp_ville": "01250 Jasseron", "Région": "Auvergne-Rhône-Alpes", "Département": "Ain", "Gazole_prix": 2.042, "SP98_prix": 2.067, "SP95_prix": null, "E85_prix": 1.229, "E10_prix": 2.007, "GPLc_prix": 1.099, "Latitude": 46.204246412569503, "Longitude": 5.2952874210046001, "Apparition": 2 }, "geometry": { "type": "Point", "coordinates": [ 5.2952874210046, 46.204246412569503 ] } },
{ "type": "Feature", "properties": { "cp_ville": "01250 Tossiat", "Région": "Auvergne-Rhône-Alpes", "Département": "Ain", "Gazole_prix": 1.899, "SP98_prix": 1.929, "SP95_prix": 1.899, "E85_prix": null, "E10_prix": null, "GPLc_prix": null, "Latitude": 46.13408, "Longitude": 5.2888, "Apparition": 1 }, "geometry": { "type": "Point", "coordinates": [ 5.2888, 46.13408 ] } },
{ "type": "Feature", "properties": { "cp_ville": "01270 Coligny", "Région": "Auvergne-Rhône-Alpes", "Département": "Ain", "Gazole_prix": 1.969, "SP98_prix": 1.99, "SP95_prix": null, "E85_prix": null, "E10_prix": null, "GPLc_prix": null, "Latitude": 46.382, "Longitude": 5.345, "Apparition": 1 }, "geometry": { "type": "Point", "coordinates": [ 5.345, 46.382 ] } },
{ "type": "Feature", "properties": { "cp_ville": "01290 Laiz", "Région": "Auvergne-Rhône-Alpes", "Département": "Ain", "Gazole_prix": 1.89, "SP98_prix": 1.94, "SP95_prix": null, "E85_prix": 1.04, "E10_prix": 1.83, "GPLc_prix": null, "Latitude": 46.255, "Longitude": 4.89, "Apparition": 1 }, "geometry": { "type": "Point", "coordinates": [ 4.89, 46.255 ] } },
{ "type": "Feature", "properties": { "cp_ville": "01300 Belley", "Région": "Auvergne-Rhône-Alpes", "Département": "Ain", "Gazole_prix": 1.9285, "SP98_prix": 1.985, "SP95_prix": 1.989, "E85_prix": null, "E10_prix": null, "GPLc_prix": null, "Latitude": 45.75786, "Longitude": 5.68467, "Apparition": 2 }, "geometry": { "type": "Point", "coordinates": [ 5.68467, 45.75786 ] } },
{ "type": "Feature", "properties": { "cp_ville": "01300 Chazey-Bons", "Région": "Auvergne-Rhône-Alpes", "Département": "Ain", "Gazole_prix": 1.855, "SP98_prix": 1.855, "SP95_prix": null, "E85_prix": null, "E10_prix": 1.799, "GPLc_prix": null, "Latitude": 45.778, "Longitude": 5.689, "Apparition": 1 }, "geometry": { "type": "Point", "coordinates": [ 5.689, 45.778 ] } },
{ "type": "Feature", "properties": { "cp_ville": "01310 Confrançon", "Région": "Auvergne-Rhône-Alpes", "Département": "Ain", "Gazole_prix": 1.919, "SP98_prix": 1.979, "SP95_prix": 1.889, "E85_prix": null, "E10_prix": null, "GPLc_prix": null, "Latitude": 46.256, "Longitude": 5.057, "Apparition": 1 }, "geometry": { "type": "Point", "coordinates": [ 5.057, 46.256 ] } },
{ "type": "Feature", "properties": { "cp_ville": "01310 Polliat", "Région": "Auvergne-Rhône-Alpes", "Département": "Ain", "Gazole_prix": 1.954, "SP98_prix": 1.99, "SP95_prix": null, "E85_prix": null, "E10_prix": 1.899, "GPLc_prix": null, "Latitude": 46.2508258935, "Longitude": 5.1121133273800003, "Apparition": 1 }, "geometry": { "type": "Point", "coordinates": [ 5.11211332738, 46.2508258935 ] } },
{ "type": "Feature", "properties": { "cp_ville": "01320 Chalamont", "Région": "Auvergne-Rhône-Alpes", "Département": "Ain", "Gazole_prix": 1.9395, "SP98_prix": 1.969, "SP95_prix": 1.99, "E85_prix": null, "E10_prix": 1.871, "GPLc_prix": null, "Latitude": 45.9945, "Longitude": 5.173, "Apparition": 2 }, "geometry": { "type": "Point", "coordinates": [ 5.173, 45.9945 ] } },
{ "type": "Feature", "properties": { "cp_ville": "01330 Ambérieux-en-Dombes", "Région": "Auvergne-Rhône-Alpes", "Département": "Ain", "Gazole_prix": 1.944, "SP98_prix": 1.99, "SP95_prix": null, "E85_prix": null, "E10_prix": 1.894, "GPLc_prix": null, "Latitude": 45.999, "Longitude": 4.899, "Apparition": 1 }, "geometry": { "type": "Point", "coordinates": [ 4.899, 45.999 ] } },
{ "type": "Feature", "properties": { "cp_ville": "01330 Villars-les-Dombes", "Région": "Auvergne-Rhône-Alpes", "Département": "Ain", "Gazole_prix": 1.849, "SP98_prix": 1.879, "SP95_prix": 1.869, "E85_prix": null, "E10_prix": null, "GPLc_prix": null, "Latitude": 46.007, "Longitude": 5.035, "Apparition": 1 }, "geometry": { "type": "Point", "coordinates": [ 5.035, 46.007 ] } },
{ "type": "Feature", "properties": { "cp_ville": "01340 Attignat", "Région": "Auvergne-Rhône-Alpes", "Département": "Ain", "Gazole_prix": 1.999, "SP98_prix": 2.114, "SP95_prix": 2.091, "E85_prix": 1.182, "E10_prix": null, "GPLc_prix": null, "Latitude": 46.279, "Longitude": 5.165, "Apparition": 1 }, "geometry": { "type": "Point", "coordinates": [ 5.165, 46.279 ] } },
{ "type": "Feature", "properties": { "cp_ville": "01340 Jayat", "Région": "Auvergne-Rhône-Alpes", "Département": "Ain", "Gazole_prix": 1.777, "SP98_prix": 1.814, "SP95_prix": 1.768, "E85_prix": 0.998, "E10_prix": 1.727, "GPLc_prix": null, "Latitude": 46.346, "Longitude": 5.126, "Apparition": 1 }, "geometry": { "type": "Point", "coordinates": [ 5.126, 46.346 ] } },
{ "type": "Feature", "properties": { "cp_ville": "01340 Malafretaz", "Région": "Auvergne-Rhône-Alpes", "Département": "Ain", "Gazole_prix": 1.954, "SP98_prix": 1.99, "SP95_prix": null, "E85_prix": null, "E10_prix": 1.894, "GPLc_prix": null, "Latitude": 46.323, "Longitude": 5.137, "Apparition": 1 }, "geometry": { "type": "Point", "coordinates": [ 5.137, 46.323 ] } },
{ "type": "Feature", "properties": { "cp_ville": "01340 Montrevel-en-Bresse", "Région": "Auvergne-Rhône-Alpes", "Département": "Ain", "Gazole_prix": 1.839, "SP98_prix": null, "SP95_prix": 1.835, "E85_prix": null, "E10_prix": 1.74, "GPLc_prix": null, "Latitude": 46.3347264, "Longitude": 5.1260021, "Apparition": 1 }, "geometry": { "type": "Point", "coordinates": [ 5.1260021, 46.3347264 ] } },
{ "type": "Feature", "properties": { "cp_ville": "01350 Culoz", "Région": "Auvergne-Rhône-Alpes", "Département": "Ain", "Gazole_prix": 1.924, "SP98_prix": 1.977, "SP95_prix": 1.999, "E85_prix": null, "E10_prix": 1.832, "GPLc_prix": null, "Latitude": 45.847811740859001, "Longitude": 5.7784899824634, "Apparition": 2 }, "geometry": { "type": "Point", "coordinates": [ 5.7784899824634, 45.847811740859001 ] } },
{ "type": "Feature", "properties": { "cp_ville": "01360 Balan", "Région": "Auvergne-Rhône-Alpes", "Département": "Ain", "Gazole_prix": 1.99, "SP98_prix": 1.99, "SP95_prix": 1.99, "E85_prix": null, "E10_prix": null, "GPLc_prix": null, "Latitude": 45.84889, "Longitude": 5.11958, "Apparition": 1 }, "geometry": { "type": "Point", "coordinates": [ 5.11958, 45.84889 ] } },
{ "type": "Feature", "properties": { "cp_ville": "01360 Loyettes", "Région": "Auvergne-Rhône-Alpes", "Département": "Ain", "Gazole_prix": 1.934, "SP98_prix": null, "SP95_prix": 1.969, "E85_prix": null, "E10_prix": null, "GPLc_prix": null, "Latitude": 45.779, "Longitude": 5.213, "Apparition": 1 }, "geometry": { "type": "Point", "coordinates": [ 5.213, 45.779 ] } },
{ "type": "Feature", "properties": { "cp_ville": "01370 Saint-Étienne-du-Bois", "Région": "Auvergne-Rhône-Alpes", "Département": "Ain", "Gazole_prix": 1.799, "SP98_prix": 1.89, "SP95_prix": null, "E85_prix": null, "E10_prix": 1.749, "GPLc_prix": null, "Latitude": 46.27, "Longitude": 5.293, "Apparition": 1 }, "geometry": { "type": "Point", "coordinates": [ 5.293, 46.27 ] } },
{ "type": "Feature", "properties": { "cp_ville": "01380 Bâgé-Dommartin", "Région": "Auvergne-Rhône-Alpes", "Département": "Ain", "Gazole_prix": 1.839, "SP98_prix": null, "SP95_prix": 1.849, "E85_prix": null, "E10_prix": 1.779, "GPLc_prix": null, "Latitude": 46.313, "Longitude": 4.942, "Apparition": 1 }, "geometry": { "type": "Point", "coordinates": [ 4.942, 46.313 ] } },
{ "type": "Feature", "properties": { "cp_ville": "01390 Mionnay", "Région": "Auvergne-Rhône-Alpes", "Département": "Ain", "Gazole_prix": 2.069, "SP98_prix": 2.16, "SP95_prix": null, "E85_prix": null, "E10_prix": 2.04, "GPLc_prix": null, "Latitude": 45.887252990025502, "Longitude": 4.8938108939490998, "Apparition": 2 }, "geometry": { "type": "Point", "coordinates": [ 4.8938108939491, 45.887252990025502 ] } },
{ "type": "Feature", "properties": { "cp_ville": "01390 Saint-André-de-Corcy", "Région": "Auvergne-Rhône-Alpes", "Département": "Ain", "Gazole_prix": 1.914, "SP98_prix": 1.976, "SP95_prix": 1.959, "E85_prix": 0.99, "E10_prix": 1.8865, "GPLc_prix": null, "Latitude": 45.929, "Longitude": 4.968, "Apparition": 3 }, "geometry": { "type": "Point", "coordinates": [ 4.968, 45.929 ] } },
{ "type": "Feature", "properties": { "cp_ville": "01400 Châtillon-sur-Chalaronne", "Région": "Auvergne-Rhône-Alpes", "Département": "Ain", "Gazole_prix": 1.8176666666666663, "SP98_prix": 1.8885, "SP95_prix": 1.8235, "E85_prix": 0.998, "E10_prix": 1.728, "GPLc_prix": null, "Latitude": 46.117499979850002, "Longitude": 4.9549981874075, "Apparition": 4 }, "geometry": { "type": "Point", "coordinates": [ 4.9549981874075, 46.117499979850002 ] } },
{ "type": "Feature", "properties": { "cp_ville": "01430 Ceignes", "Région": "Auvergne-Rhône-Alpes", "Département": "Ain", "Gazole_prix": 2.0295, "SP98_prix": 2.0795, "SP95_prix": null, "E85_prix": 1.239, "E10_prix": 2.0195, "GPLc_prix": 1.0765, "Latitude": 46.120897812470005, "Longitude": 5.4953331397645506, "Apparition": 2 }, "geometry": { "type": "Point", "coordinates": [ 5.495333139764551, 46.120897812470005 ] } },
{ "type": "Feature", "properties": { "cp_ville": "01430 Maillat", "Région": "Auvergne-Rhône-Alpes", "Département": "Ain", "Gazole_prix": 2.017, "SP98_prix": null, "SP95_prix": 2.016, "E85_prix": null, "E10_prix": 1.987, "GPLc_prix": null, "Latitude": 46.128, "Longitude": 5.54, "Apparition": 1 }, "geometry": { "type": "Point", "coordinates": [ 5.54, 46.128 ] } },
{ "type": "Feature", "properties": { "cp_ville": "01440 Viriat", "Région": "Auvergne-Rhône-Alpes", "Département": "Ain", "Gazole_prix": 1.939, "SP98_prix": 1.9595, "SP95_prix": 1.94, "E85_prix": null, "E10_prix": 1.894, "GPLc_prix": null, "Latitude": 46.230333333333327, "Longitude": 5.2346666666666666, "Apparition": 3 }, "geometry": { "type": "Point", "coordinates": [ 5.234666666666667, 46.230333333333327 ] } },
{ "type": "Feature", "properties": { "cp_ville": "01460 Montréal-la-Cluse", "Région": "Auvergne-Rhône-Alpes", "Département": "Ain", "Gazole_prix": 1.879, "SP98_prix": 1.909, "SP95_prix": 1.839, "E85_prix": null, "E10_prix": null, "GPLc_prix": null, "Latitude": 46.17225, "Longitude": 5.57729, "Apparition": 1 }, "geometry": { "type": "Point", "coordinates": [ 5.57729, 46.17225 ] } },
{ "type": "Feature", "properties": { "cp_ville": "01460 Nurieux-Volognat", "Région": "Auvergne-Rhône-Alpes", "Département": "Ain", "Gazole_prix": 1.99, "SP98_prix": null, "SP95_prix": 1.99, "E85_prix": null, "E10_prix": null, "GPLc_prix": null, "Latitude": 46.187, "Longitude": 5.526, "Apparition": 1 }, "geometry": { "type": "Point", "coordinates": [ 5.526, 46.187 ] } },
{ "type": "Feature", "properties": { "cp_ville": "01460 Port", "Région": "Auvergne-Rhône-Alpes", "Département": "Ain", "Gazole_prix": 1.879, "SP98_prix": 1.909, "SP95_prix": null, "E85_prix": 0.999, "E10_prix": 1.829, "GPLc_prix": null, "Latitude": 46.166, "Longitude": 5.571, "Apparition": 1 }, "geometry": { "type": "Point", "coordinates": [ 5.571, 46.166 ] } },
{ "type": "Feature", "properties": { "cp_ville": "01470 Briord", "Région": "Auvergne-Rhône-Alpes", "Département": "Ain", "Gazole_prix": 1.839, "SP98_prix": 1.869, "SP95_prix": null, "E85_prix": null, "E10_prix": 1.779, "GPLc_prix": null, "Latitude": 45.78776, "Longitude": 5.45414, "Apparition": 1 }, "geometry": { "type": "Point", "coordinates": [ 5.45414, 45.78776 ] } },
{ "type": "Feature", "properties": { "cp_ville": "01470 Montagnieu", "Région": "Auvergne-Rhône-Alpes", "Département": "Ain", "Gazole_prix": null, "SP98_prix": null, "SP95_prix": null, "E85_prix": null, "E10_prix": null, "GPLc_prix": null, "Latitude": 45.7951, "Longitude": 5.46083, "Apparition": 1 }, "geometry": { "type": "Point", "coordinates": [ 5.46083, 45.7951 ] } },
{ "type": "Feature", "properties": { "cp_ville": "01480 Jassans-Riottier", "Région": "Auvergne-Rhône-Alpes", "Département": "Ain", "Gazole_prix": 1.861, "SP98_prix": 1.967, "SP95_prix": 1.809, "E85_prix": null, "E10_prix": null, "GPLc_prix": null, "Latitude": 45.98403, "Longitude": 4.75694, "Apparition": 1 }, "geometry": { "type": "Point", "coordinates": [ 4.75694, 45.98403 ] } },
{ "type": "Feature", "properties": { "cp_ville": "01480 Messimy-sur-Saône", "Région": "Auvergne-Rhône-Alpes", "Département": "Ain", "Gazole_prix": 1.954, "SP98_prix": 1.99, "SP95_prix": null, "E85_prix": null, "E10_prix": 1.919, "GPLc_prix": null, "Latitude": 46.049817093241003, "Longitude": 4.7655106176786006, "Apparition": 1 }, "geometry": { "type": "Point", "coordinates": [ 4.765510617678601, 46.049817093241003 ] } },
{ "type": "Feature", "properties": { "cp_ville": "01500 Ambérieu-en-Bugey", "Région": "Auvergne-Rhône-Alpes", "Département": "Ain", "Gazole_prix": 1.92425, "SP98_prix": 1.97425, "SP95_prix": 2.049, "E85_prix": 0.999, "E10_prix": 1.819, "GPLc_prix": 1.047, "Latitude": 45.957859938563502, "Longitude": 5.3517301964178499, "Apparition": 4 }, "geometry": { "type": "Point", "coordinates": [ 5.35173019641785, 45.957859938563502 ] } },
{ "type": "Feature", "properties": { "cp_ville": "01500 Château-Gaillard", "Région": "Auvergne-Rhône-Alpes", "Département": "Ain", "Gazole_prix": 1.969, "SP98_prix": null, "SP95_prix": 1.949, "E85_prix": null, "E10_prix": null, "GPLc_prix": null, "Latitude": 45.97596, "Longitude": 5.309125, "Apparition": 2 }, "geometry": { "type": "Point", "coordinates": [ 5.309125, 45.97596 ] } },
{ "type": "Feature", "properties": { "cp_ville": "01510 Artemare", "Région": "Auvergne-Rhône-Alpes", "Département": "Ain", "Gazole_prix": 1.879, "SP98_prix": 1.879, "SP95_prix": 1.859, "E85_prix": null, "E10_prix": null, "GPLc_prix": null, "Latitude": 45.873, "Longitude": 5.698, "Apparition": 1 }, "geometry": { "type": "Point", "coordinates": [ 5.698, 45.873 ] } },
{ "type": "Feature", "properties": { "cp_ville": "01540 Vonnas", "Région": "Auvergne-Rhône-Alpes", "Département": "Ain", "Gazole_prix": 1.822, "SP98_prix": 1.921, "SP95_prix": 1.769, "E85_prix": null, "E10_prix": 1.778, "GPLc_prix": null, "Latitude": 46.2055, "Longitude": 4.9945, "Apparition": 2 }, "geometry": { "type": "Point", "coordinates": [ 4.9945, 46.2055 ] } },
{ "type": "Feature", "properties": { "cp_ville": "01560 Saint-Trivier-de-Courtes", "Région": "Auvergne-Rhône-Alpes", "Département": "Ain", "Gazole_prix": 1.904, "SP98_prix": 1.979, "SP95_prix": 1.831, "E85_prix": null, "E10_prix": null, "GPLc_prix": null, "Latitude": 46.459, "Longitude": 5.075, "Apparition": 1 }, "geometry": { "type": "Point", "coordinates": [ 5.075, 46.459 ] } },
{ "type": "Feature", "properties": { "cp_ville": "01570 Feillens", "Région": "Auvergne-Rhône-Alpes", "Département": "Ain", "Gazole_prix": 1.834, "SP98_prix": 1.835, "SP95_prix": null, "E85_prix": 0.998, "E10_prix": 1.779, "GPLc_prix": null, "Latitude": 46.329, "Longitude": 4.885, "Apparition": 1 }, "geometry": { "type": "Point", "coordinates": [ 4.885, 46.329 ] } },
{ "type": "Feature", "properties": { "cp_ville": "01590 Dortan", "Région": "Auvergne-Rhône-Alpes", "Département": "Ain", "Gazole_prix": 1.99, "SP98_prix": 2.0, "SP95_prix": 1.98, "E85_prix": null, "E10_prix": null, "GPLc_prix": null, "Latitude": 46.322, "Longitude": 5.656, "Apparition": 1 }, "geometry": { "type": "Point", "coordinates": [ 5.656, 46.322 ] } },
{ "type": "Feature", "properties": { "cp_ville": "01590 Lavancia-Epercy", "Région": "Bourgogne-Franche-Comté", "Département": "Jura", "Gazole_prix": 1.849, "SP98_prix": null, "SP95_prix": null, "E85_prix": 0.998, "E10_prix": 1.799, "GPLc_prix": null, "Latitude": 46.325, "Longitude": 5.672, "Apparition": 1 }, "geometry": { "type": "Point", "coordinates": [ 5.672, 46.325 ] } },
{ "type": "Feature", "properties": { "cp_ville": "01600 Massieux", "Région": "Auvergne-Rhône-Alpes", "Département": "Ain", "Gazole_prix": 1.821, "SP98_prix": 1.867, "SP95_prix": null, "E85_prix": null, "E10_prix": 1.766, "GPLc_prix": null, "Latitude": 45.904, "Longitude": 4.82, "Apparition": 1 }, "geometry": { "type": "Point", "coordinates": [ 4.82, 45.904 ] } },
{ "type": "Feature", "properties": { "cp_ville": "01600 Trévoux", "Région": "Auvergne-Rhône-Alpes", "Département": "Ain", "Gazole_prix": 1.899, "SP98_prix": 1.975, "SP95_prix": 1.851, "E85_prix": null, "E10_prix": null, "GPLc_prix": null, "Latitude": 45.934724744999997, "Longitude": 4.7906277049700003, "Apparition": 1 }, "geometry": { "type": "Point", "coordinates": [ 4.79062770497, 45.934724745 ] } },
{ "type": "Feature", "properties": { "cp_ville": "01630 Péron", "Région": "Auvergne-Rhône-Alpes", "Département": "Ain", "Gazole_prix": 1.805, "SP98_prix": 1.825, "SP95_prix": null, "E85_prix": 0.999, "E10_prix": 1.755, "GPLc_prix": null, "Latitude": 46.183, "Longitude": 5.929, "Apparition": 1 }, "geometry": { "type": "Point", "coordinates": [ 5.929, 46.183 ] } },
{ "type": "Feature", "properties": { "cp_ville": "01630 Saint-Genis-Pouilly", "Région": "Auvergne-Rhône-Alpes", "Département": "Ain", "Gazole_prix": 1.902, "SP98_prix": 1.825, "SP95_prix": null, "E85_prix": 0.999, "E10_prix": 1.877, "GPLc_prix": null, "Latitude": 46.25263, "Longitude": 6.02725, "Apparition": 2 }, "geometry": { "type": "Point", "coordinates": [ 6.02725, 46.25263 ] } },
{ "type": "Feature", "properties": { "cp_ville": "01640 Saint-Jean-le-Vieux", "Région": "Auvergne-Rhône-Alpes", "Département": "Ain", "Gazole_prix": null, "SP98_prix": null, "SP95_prix": null, "E85_prix": null, "E10_prix": null, "GPLc_prix": null, "Latitude": 46.034876030468993, "Longitude": 5.3894526948339001, "Apparition": 1 }, "geometry": { "type": "Point", "coordinates": [ 5.3894526948339, 46.034876030468993 ] } },
{ "type": "Feature", "properties": { "cp_ville": "01700 Beynost", "Région": "Auvergne-Rhône-Alpes", "Département": "Ain", "Gazole_prix": 1.775, "SP98_prix": 1.814, "SP95_prix": 1.774, "E85_prix": 0.946, "E10_prix": null, "GPLc_prix": 0.99, "Latitude": 45.826, "Longitude": 4.999, "Apparition": 1 }, "geometry": { "type": "Point", "coordinates": [ 4.999, 45.826 ] } },
{ "type": "Feature", "properties": { "cp_ville": "01700 Miribel", "Région": "Auvergne-Rhône-Alpes", "Département": "Ain", "Gazole_prix": 1.839, "SP98_prix": 1.891, "SP95_prix": null, "E85_prix": null, "E10_prix": 1.811, "GPLc_prix": null, "Latitude": 45.8495, "Longitude": 4.942, "Apparition": 2 }, "geometry": { "type": "Point", "coordinates": [ 4.942, 45.8495 ] } },
{ "type": "Feature", "properties": { "cp_ville": "01710 Thoiry", "Région": "Auvergne-Rhône-Alpes", "Département": "Ain", "Gazole_prix": null, "SP98_prix": null, "SP95_prix": null, "E85_prix": null, "E10_prix": null, "GPLc_prix": null, "Latitude": 46.227, "Longitude": 5.993, "Apparition": 1 }, "geometry": { "type": "Point", "coordinates": [ 5.993, 46.227 ] } },
{ "type": "Feature", "properties": { "cp_ville": "01750 Replonges", "Région": "Auvergne-Rhône-Alpes", "Département": "Ain", "Gazole_prix": 1.845, "SP98_prix": null, "SP95_prix": 1.845, "E85_prix": null, "E10_prix": 1.785, "GPLc_prix": null, "Latitude": 46.299, "Longitude": 4.881, "Apparition": 1 }, "geometry": { "type": "Point", "coordinates": [ 4.881, 46.299 ] } },
{ "type": "Feature", "properties": { "cp_ville": "01800 Meximieux", "Région": "Auvergne-Rhône-Alpes", "Département": "Ain", "Gazole_prix": 1.899, "SP98_prix": 1.97, "SP95_prix": null, "E85_prix": 0.999, "E10_prix": 1.871, "GPLc_prix": null, "Latitude": 45.906311604186499, "Longitude": 5.1903572443838, "Apparition": 2 }, "geometry": { "type": "Point", "coordinates": [ 5.1903572443838, 45.906311604186499 ] } },
{ "type": "Feature", "properties": { "cp_ville": "01800 Saint-Maurice-de-Gourdans", "Région": "Auvergne-Rhône-Alpes", "Département": "Ain", "Gazole_prix": 1.99, "SP98_prix": null, "SP95_prix": 1.99, "E85_prix": null, "E10_prix": null, "GPLc_prix": null, "Latitude": 45.821, "Longitude": 5.2, "Apparition": 1 }, "geometry": { "type": "Point", "coordinates": [ 5.2, 45.821 ] } },
{ "type": "Feature", "properties": { "cp_ville": "01960 Péronnas", "Région": "Auvergne-Rhône-Alpes", "Département": "Ain", "Gazole_prix": 1.909, "SP98_prix": 1.969, "SP95_prix": 1.929, "E85_prix": 0.969, "E10_prix": 1.889, "GPLc_prix": 0.999, "Latitude": 46.1865, "Longitude": 5.2125, "Apparition": 2 }, "geometry": { "type": "Point", "coordinates": [ 5.2125, 46.1865 ] } },
{ "type": "Feature", "properties": { "cp_ville": "01960 Servas", "Région": "Auvergne-Rhône-Alpes", "Département": "Ain", "Gazole_prix": 1.849, "SP98_prix": 1.919, "SP95_prix": null, "E85_prix": 0.998, "E10_prix": 1.779, "GPLc_prix": null, "Latitude": 46.128, "Longitude": 5.163, "Apparition": 1 }, "geometry": { "type": "Point", "coordinates": [ 5.163, 46.128 ] } },
{ "type": "Feature", "properties": { "cp_ville": "02000 Chambry", "Région": "Hauts-de-France", "Département": "Aisne", "Gazole_prix": 1.784, "SP98_prix": 1.85, "SP95_prix": null, "E85_prix": 0.951, "E10_prix": 1.782, "GPLc_prix": 0.995, "Latitude": 49.587, "Longitude": 3.649, "Apparition": 1 }, "geometry": { "type": "Point", "coordinates": [ 3.649, 49.587 ] } },
{ "type": "Feature", "properties": { "cp_ville": "02000 Laon", "Région": "Hauts-de-France", "Département": "Aisne", "Gazole_prix": 1.8984285714285716, "SP98_prix": 1.9448333333333332, "SP95_prix": 1.9343333333333328, "E85_prix": 1.0443333333333331, "E10_prix": 1.8508, "GPLc_prix": null, "Latitude": 49.56775086731357, "Longitude": 3.633734739515043, "Apparition": 7 }, "geometry": { "type": "Point", "coordinates": [ 3.633734739515043, 49.56775086731357 ] } },
{ "type": "Feature", "properties": { "cp_ville": "02100 Fayet", "Région": "Hauts-de-France", "Département": "Aisne", "Gazole_prix": 1.836, "SP98_prix": 1.906, "SP95_prix": null, "E85_prix": 0.936, "E10_prix": 1.825, "GPLc_prix": 0.956, "Latitude": 49.858, "Longitude": 3.253, "Apparition": 1 }, "geometry": { "type": "Point", "coordinates": [ 3.253, 49.858 ] } },
{ "type": "Feature", "properties": { "cp_ville": "02100 Harly", "Région": "Hauts-de-France", "Département": "Aisne", "Gazole_prix": 1.791, "SP98_prix": 1.831, "SP95_prix": null, "E85_prix": 0.957, "E10_prix": 1.757, "GPLc_prix": 0.956, "Latitude": 49.84272807, "Longitude": 3.32345007, "Apparition": 1 }, "geometry": { "type": "Point", "coordinates": [ 3.32345007, 49.84272807 ] } },
{ "type": "Feature", "properties": { "cp_ville": "02100 Neuville-Saint-Amand", "Région": "Hauts-de-France", "Département": "Aisne", "Gazole_prix": 1.791, "SP98_prix": 1.831, "SP95_prix": null, "E85_prix": 0.957, "E10_prix": 1.757, "GPLc_prix": null, "Latitude": 49.82437906000001, "Longitude": 3.31075437, "Apparition": 1 }, "geometry": { "type": "Point", "coordinates": [ 3.31075437, 49.82437906 ] } },
{ "type": "Feature", "properties": { "cp_ville": "02100 Saint-Quentin", "Région": "Hauts-de-France", "Département": "Aisne", "Gazole_prix": 1.8833333333333333, "SP98_prix": 1.929, "SP95_prix": 1.869, "E85_prix": 1.0583333333333331, "E10_prix": 1.8782, "GPLc_prix": 0.976, "Latitude": 49.845939250325003, "Longitude": 3.2871049632724998, "Apparition": 8 }, "geometry": { "type": "Point", "coordinates": [ 3.2871049632725, 49.845939250325003 ] } },
{ "type": "Feature", "properties": { "cp_ville": "02110 Bohain-en-Vermandois", "Région": "Hauts-de-France", "Département": "Aisne", "Gazole_prix": 1.86, "SP98_prix": 1.885, "SP95_prix": null, "E85_prix": 0.998, "E10_prix": 1.825, "GPLc_prix": null, "Latitude": 49.9819591, "Longitude": 3.4521858, "Apparition": 2 }, "geometry": { "type": "Point", "coordinates": [ 3.4521858, 49.9819591 ] } },
{ "type": "Feature", "properties": { "cp_ville": "02120 Guise", "Région": "Hauts-de-France", "Département": "Aisne", "Gazole_prix": 1.9223333333333332, "SP98_prix": 1.9533333333333331, "SP95_prix": 1.93, "E85_prix": 1.169, "E10_prix": 1.872, "GPLc_prix": 0.999, "Latitude": 49.90055, "Longitude": 3.6311333333333331, "Apparition": 3 }, "geometry": { "type": "Point", "coordinates": [ 3.631133333333333, 49.90055 ] } },
{ "type": "Feature", "properties": { "cp_ville": "02130 Fère-en-Tardenois", "Région": "Hauts-de-France", "Département": "Aisne", "Gazole_prix": 1.899, "SP98_prix": 2.099, "SP95_prix": 1.939, "E85_prix": 0.989, "E10_prix": null, "GPLc_prix": null, "Latitude": 49.1985, "Longitude": 3.5125, "Apparition": 2 }, "geometry": { "type": "Point", "coordinates": [ 3.5125, 49.1985 ] } },
{ "type": "Feature", "properties": { "cp_ville": "02130 Étrépilly", "Région": "Hauts-de-France", "Département": "Aisne", "Gazole_prix": 2.029, "SP98_prix": 2.139, "SP95_prix": null, "E85_prix": null, "E10_prix": 2.039, "GPLc_prix": 1.083, "Latitude": 49.07771, "Longitude": 3.37046, "Apparition": 2 }, "geometry": { "type": "Point", "coordinates": [ 3.37046, 49.07771 ] } },
{ "type": "Feature", "properties": { "cp_ville": "02140 Fontaine-lès-Vervins", "Région": "Hauts-de-France", "Département": "Aisne", "Gazole_prix": 1.93, "SP98_prix": null, "SP95_prix": null, "E85_prix": null, "E10_prix": 1.928, "GPLc_prix": null, "Latitude": 49.843, "Longitude": 3.905, "Apparition": 1 }, "geometry": { "type": "Point", "coordinates": [ 3.905, 49.843 ] } },
{ "type": "Feature", "properties": { "cp_ville": "02140 Vervins", "Région": "Hauts-de-France", "Département": "Aisne", "Gazole_prix": 1.9265, "SP98_prix": 1.9295, "SP95_prix": 1.887, "E85_prix": 0.998, "E10_prix": 1.886, "GPLc_prix": null, "Latitude": 49.837063894078, "Longitude": 3.9132089720010494, "Apparition": 2 }, "geometry": { "type": "Point", "coordinates": [ 3.913208972001049, 49.837063894078 ] } },
{ "type": "Feature", "properties": { "cp_ville": "02170 Le Nouvion-en-Thiérache", "Région": "Hauts-de-France", "Département": "Aisne", "Gazole_prix": 1.969, "SP98_prix": 2.0, "SP95_prix": 1.989, "E85_prix": null, "E10_prix": null, "GPLc_prix": null, "Latitude": 50.013, "Longitude": 3.781, "Apparition": 1 }, "geometry": { "type": "Point", "coordinates": [ 3.781, 50.013 ] } },
{ "type": "Feature", "properties": { "cp_ville": "02190 Villeneuve-sur-Aisne", "Région": "Hauts-de-France", "Département": "Aisne", "Gazole_prix": 1.9843333333333333, "SP98_prix": 2.0383333333333336, "SP95_prix": 1.949, "E85_prix": 1.369, "E10_prix": 1.983, "GPLc_prix": 1.083, "Latitude": 49.442946915074657, "Longitude": 3.9403445439265332, "Apparition": 3 }, "geometry": { "type": "Point", "coordinates": [ 3.940344543926533, 49.442946915074657 ] } },
{ "type": "Feature", "properties": { "cp_ville": "02200 Soissons", "Région": "Hauts-de-France", "Département": "Aisne", "Gazole_prix": 1.8955714285714289, "SP98_prix": 1.9504285714285716, "SP95_prix": 1.914, "E85_prix": 0.995, "E10_prix": 1.8561666666666667, "GPLc_prix": 1.004, "Latitude": 49.375381428571423, "Longitude": 3.3225671428571428, "Apparition": 7 }, "geometry": { "type": "Point", "coordinates": [ 3.322567142857143, 49.375381428571423 ] } },
{ "type": "Feature", "properties": { "cp_ville": "02200 Vauxbuin", "Région": "Hauts-de-France", "Département": "Aisne", "Gazole_prix": 1.861, "SP98_prix": 1.988, "SP95_prix": null, "E85_prix": null, "E10_prix": 1.908, "GPLc_prix": null, "Latitude": 49.364, "Longitude": 3.304, "Apparition": 1 }, "geometry": { "type": "Point", "coordinates": [ 3.304, 49.364 ] } },
{ "type": "Feature", "properties": { "cp_ville": "02200 Venizel", "Région": "Hauts-de-France", "Département": "Aisne", "Gazole_prix": 1.85, "SP98_prix": 1.942, "SP95_prix": 1.922, "E85_prix": null, "E10_prix": null, "GPLc_prix": null, "Latitude": 49.36299, "Longitude": 3.40346, "Apparition": 1 }, "geometry": { "type": "Point", "coordinates": [ 3.40346, 49.36299 ] } },
{ "type": "Feature", "properties": { "cp_ville": "02220 Braine", "Région": "Hauts-de-France", "Département": "Aisne", "Gazole_prix": 1.899, "SP98_prix": 1.999, "SP95_prix": null, "E85_prix": 1.069, "E10_prix": 1.899, "GPLc_prix": null, "Latitude": 49.341, "Longitude": 3.529, "Apparition": 1 }, "geometry": { "type": "Point", "coordinates": [ 3.529, 49.341 ] } },
{ "type": "Feature", "properties": { "cp_ville": "02230 Fresnoy-le-Grand", "Région": "Hauts-de-France", "Département": "Aisne", "Gazole_prix": 1.88, "SP98_prix": 1.9, "SP95_prix": 1.86, "E85_prix": null, "E10_prix": null, "GPLc_prix": null, "Latitude": 49.957514, "Longitude": 3.4304281, "Apparition": 1 }, "geometry": { "type": "Point", "coordinates": [ 3.4304281, 49.957514 ] } },
{ "type": "Feature", "properties": { "cp_ville": "02240 Ribemont", "Région": "Hauts-de-France", "Département": "Aisne", "Gazole_prix": 1.829, "SP98_prix": null, "SP95_prix": null, "E85_prix": 0.995, "E10_prix": 1.799, "GPLc_prix": null, "Latitude": 49.80095, "Longitude": 3.46696, "Apparition": 1 }, "geometry": { "type": "Point", "coordinates": [ 3.46696, 49.80095 ] } },
{ "type": "Feature", "properties": { "cp_ville": "02250 Marle", "Région": "Hauts-de-France", "Département": "Aisne", "Gazole_prix": 1.9275, "SP98_prix": 1.99, "SP95_prix": 1.939, "E85_prix": 1.069, "E10_prix": 1.92, "GPLc_prix": null, "Latitude": 49.74642, "Longitude": 3.772685, "Apparition": 2 }, "geometry": { "type": "Point", "coordinates": [ 3.772685, 49.74642 ] } },
{ "type": "Feature", "properties": { "cp_ville": "02260 La Capelle", "Région": "Hauts-de-France", "Département": "Aisne", "Gazole_prix": 1.939, "SP98_prix": 1.999, "SP95_prix": 1.979, "E85_prix": null, "E10_prix": null, "GPLc_prix": null, "Latitude": 49.973, "Longitude": 3.918, "Apparition": 1 }, "geometry": { "type": "Point", "coordinates": [ 3.918, 49.973 ] } },
{ "type": "Feature", "properties": { "cp_ville": "02270 Crécy-sur-Serre", "Région": "Hauts-de-France", "Département": "Aisne", "Gazole_prix": 1.979, "SP98_prix": 2.007, "SP95_prix": null, "E85_prix": 1.069, "E10_prix": 1.969, "GPLc_prix": null, "Latitude": 49.689, "Longitude": 3.622, "Apparition": 1 }, "geometry": { "type": "Point", "coordinates": [ 3.622, 49.689 ] } },
{ "type": "Feature", "properties": { "cp_ville": "02290 Ressons-le-Long", "Région": "Hauts-de-France", "Département": "Aisne", "Gazole_prix": 1.863, "SP98_prix": 1.923, "SP95_prix": null, "E85_prix": 0.998, "E10_prix": 1.83, "GPLc_prix": null, "Latitude": 49.396807142794998, "Longitude": 3.1156294899993999, "Apparition": 1 }, "geometry": { "type": "Point", "coordinates": [ 3.1156294899994, 49.396807142794998 ] } },
{ "type": "Feature", "properties": { "cp_ville": "02300 Autreville", "Région": "Hauts-de-France", "Département": "Aisne", "Gazole_prix": 1.909, "SP98_prix": 1.919, "SP95_prix": 1.899, "E85_prix": null, "E10_prix": null, "GPLc_prix": null, "Latitude": 49.591, "Longitude": 3.234, "Apparition": 1 }, "geometry": { "type": "Point", "coordinates": [ 3.234, 49.591 ] } },
{ "type": "Feature", "properties": { "cp_ville": "02300 Blérancourt", "Région": "Hauts-de-France", "Département": "Aisne", "Gazole_prix": 1.969, "SP98_prix": 2.027, "SP95_prix": null, "E85_prix": null, "E10_prix": 1.989, "GPLc_prix": null, "Latitude": 49.5197529, "Longitude": 3.1492908, "Apparition": 1 }, "geometry": { "type": "Point", "coordinates": [ 3.1492908, 49.5197529 ] } },
{ "type": "Feature", "properties": { "cp_ville": "02300 Chauny", "Région": "Hauts-de-France", "Département": "Aisne", "Gazole_prix": 1.909, "SP98_prix": 1.919, "SP95_prix": null, "E85_prix": 0.999, "E10_prix": 1.849, "GPLc_prix": null, "Latitude": 49.62645, "Longitude": 3.21575, "Apparition": 1 }, "geometry": { "type": "Point", "coordinates": [ 3.21575, 49.62645 ] } },
{ "type": "Feature", "properties": { "cp_ville": "02300 Viry-Noureuil", "Région": "Hauts-de-France", "Département": "Aisne", "Gazole_prix": 1.859, "SP98_prix": 1.904, "SP95_prix": null, "E85_prix": null, "E10_prix": 1.844, "GPLc_prix": null, "Latitude": 49.64287, "Longitude": 3.2595, "Apparition": 1 }, "geometry": { "type": "Point", "coordinates": [ 3.2595, 49.64287 ] } },
{ "type": "Feature", "properties": { "cp_ville": "02310 Charly-sur-Marne", "Région": "Hauts-de-France", "Département": "Aisne", "Gazole_prix": 1.829, "SP98_prix": 1.888, "SP95_prix": 1.838, "E85_prix": 0.974, "E10_prix": null, "GPLc_prix": null, "Latitude": 48.97646, "Longitude": 3.28015, "Apparition": 1 }, "geometry": { "type": "Point", "coordinates": [ 3.28015, 48.97646 ] } },
{ "type": "Feature", "properties": { "cp_ville": "02320 Anizy-le-Grand", "Région": "Hauts-de-France", "Département": "Aisne", "Gazole_prix": 1.909, "SP98_prix": 1.939, "SP95_prix": 1.909, "E85_prix": null, "E10_prix": 1.859, "GPLc_prix": null, "Latitude": 49.506, "Longitude": 3.44, "Apparition": 1 }, "geometry": { "type": "Point", "coordinates": [ 3.44, 49.506 ] } },
{ "type": "Feature", "properties": { "cp_ville": "02340 Dizy-le-Gros", "Région": "Hauts-de-France", "Département": "Aisne", "Gazole_prix": 1.939, "SP98_prix": null, "SP95_prix": null, "E85_prix": null, "E10_prix": 1.969, "GPLc_prix": null, "Latitude": 49.63, "Longitude": 4.025, "Apparition": 1 }, "geometry": { "type": "Point", "coordinates": [ 4.025, 49.63 ] } },
{ "type": "Feature", "properties": { "cp_ville": "02340 Lislet", "Région": "Hauts-de-France", "Département": "Aisne", "Gazole_prix": 1.869, "SP98_prix": 1.937, "SP95_prix": 1.887, "E85_prix": null, "E10_prix": null, "GPLc_prix": null, "Latitude": 49.689, "Longitude": 4.022, "Apparition": 1 }, "geometry": { "type": "Point", "coordinates": [ 4.022, 49.689 ] } },
{ "type": "Feature", "properties": { "cp_ville": "02360 Rozoy-sur-Serre", "Région": "Hauts-de-France", "Département": "Aisne", "Gazole_prix": 1.869, "SP98_prix": 1.937, "SP95_prix": null, "E85_prix": null, "E10_prix": 1.825, "GPLc_prix": null, "Latitude": 49.704, "Longitude": 4.112, "Apparition": 1 }, "geometry": { "type": "Point", "coordinates": [ 4.112, 49.704 ] } },
{ "type": "Feature", "properties": { "cp_ville": "02370 Vailly-sur-Aisne", "Région": "Hauts-de-France", "Département": "Aisne", "Gazole_prix": 1.881, "SP98_prix": 1.929, "SP95_prix": 1.902, "E85_prix": null, "E10_prix": null, "GPLc_prix": null, "Latitude": 49.405636006256003, "Longitude": 3.5149754981474999, "Apparition": 1 }, "geometry": { "type": "Point", "coordinates": [ 3.5149754981475, 49.405636006256003 ] } },
{ "type": "Feature", "properties": { "cp_ville": "02380 Crécy-au-Mont", "Région": "Hauts-de-France", "Département": "Aisne", "Gazole_prix": 1.854, "SP98_prix": 1.921, "SP95_prix": null, "E85_prix": 0.994, "E10_prix": 1.829, "GPLc_prix": null, "Latitude": 49.489, "Longitude": 3.336, "Apparition": 1 }, "geometry": { "type": "Point", "coordinates": [ 3.336, 49.489 ] } },
{ "type": "Feature", "properties": { "cp_ville": "02390 Origny-Sainte-Benoite", "Région": "Hauts-de-France", "Département": "Aisne", "Gazole_prix": 1.959, "SP98_prix": 1.969, "SP95_prix": 1.929, "E85_prix": null, "E10_prix": null, "GPLc_prix": null, "Latitude": 49.83722, "Longitude": 3.49412, "Apparition": 1 }, "geometry": { "type": "Point", "coordinates": [ 3.49412, 49.83722 ] } },
{ "type": "Feature", "properties": { "cp_ville": "02400 Château-Thierry", "Région": "Hauts-de-France", "Département": "Aisne", "Gazole_prix": 1.86225, "SP98_prix": 1.9553333333333336, "SP95_prix": 1.8505, "E85_prix": 0.969, "E10_prix": 1.84925, "GPLc_prix": null, "Latitude": 49.043873959499251, "Longitude": 3.3928365257137751, "Apparition": 4 }, "geometry": { "type": "Point", "coordinates": [ 3.392836525713775, 49.043873959499251 ] } },
{ "type": "Feature", "properties": { "cp_ville": "02420 Bellicourt", "Région": "Hauts-de-France", "Département": "Aisne", "Gazole_prix": 1.99, "SP98_prix": null, "SP95_prix": 1.99, "E85_prix": null, "E10_prix": null, "GPLc_prix": null, "Latitude": 49.96029, "Longitude": 3.2316, "Apparition": 1 }, "geometry": { "type": "Point", "coordinates": [ 3.2316, 49.96029 ] } },
{ "type": "Feature", "properties": { "cp_ville": "02430 Gauchy", "Région": "Hauts-de-France", "Département": "Aisne", "Gazole_prix": 1.853, "SP98_prix": 1.899, "SP95_prix": null, "E85_prix": 0.998, "E10_prix": 1.799, "GPLc_prix": 0.974, "Latitude": 49.82606, "Longitude": 3.2792, "Apparition": 1 }, "geometry": { "type": "Point", "coordinates": [ 3.2792, 49.82606 ] } },
{ "type": "Feature", "properties": { "cp_ville": "02450 La Neuville-lès-Dorengt", "Région": "Hauts-de-France", "Département": "Aisne", "Gazole_prix": 1.94, "SP98_prix": 1.989, "SP95_prix": 1.965, "E85_prix": null, "E10_prix": null, "GPLc_prix": null, "Latitude": 49.9772968, "Longitude": 3.6768151, "Apparition": 1 }, "geometry": { "type": "Point", "coordinates": [ 3.6768151, 49.9772968 ] } },
{ "type": "Feature", "properties": { "cp_ville": "02460 La Ferté-Milon", "Région": "Hauts-de-France", "Département": "Aisne", "Gazole_prix": 1.979, "SP98_prix": 2.099, "SP95_prix": 2.059, "E85_prix": 1.099, "E10_prix": null, "GPLc_prix": null, "Latitude": 49.185303407714002, "Longitude": 3.1230893867999496, "Apparition": 2 }, "geometry": { "type": "Point", "coordinates": [ 3.12308938679995, 49.185303407714002 ] } },
{ "type": "Feature", "properties": { "cp_ville": "02470 Neuilly-Saint-Front", "Région": "Hauts-de-France", "Département": "Aisne", "Gazole_prix": 1.789, "SP98_prix": 1.845, "SP95_prix": null, "E85_prix": null, "E10_prix": 1.752, "GPLc_prix": null, "Latitude": 49.169, "Longitude": 3.257, "Apparition": 1 }, "geometry": { "type": "Point", "coordinates": [ 3.257, 49.169 ] } },
{ "type": "Feature", "properties": { "cp_ville": "02480 Jussy", "Région": "Hauts-de-France", "Département": "Aisne", "Gazole_prix": 1.946, "SP98_prix": 1.987, "SP95_prix": null, "E85_prix": 1.069, "E10_prix": 1.939, "GPLc_prix": null, "Latitude": 49.733536180498007, "Longitude": 3.2450595752321001, "Apparition": 1 }, "geometry": { "type": "Point", "coordinates": [ 3.2450595752321, 49.733536180498007 ] } },
{ "type": "Feature", "properties": { "cp_ville": "02500 Hirson", "Région": "Hauts-de-France", "Département": "Aisne", "Gazole_prix": 1.846, "SP98_prix": 1.895, "SP95_prix": null, "E85_prix": null, "E10_prix": 1.8126666666666664, "GPLc_prix": 0.959, "Latitude": 49.916058060613999, "Longitude": 4.0836934750993992, "Apparition": 3 }, "geometry": { "type": "Point", "coordinates": [ 4.083693475099399, 49.916058060613999 ] } },
{ "type": "Feature", "properties": { "cp_ville": "02580 Étréaupont", "Région": "Hauts-de-France", "Département": "Aisne", "Gazole_prix": 1.939, "SP98_prix": null, "SP95_prix": null, "E85_prix": null, "E10_prix": 1.989, "GPLc_prix": null, "Latitude": 49.9035443, "Longitude": 3.9139988, "Apparition": 1 }, "geometry": { "type": "Point", "coordinates": [ 3.9139988, 49.9035443 ] } },
{ "type": "Feature", "properties": { "cp_ville": "02600 Villers-Cotterêts", "Région": "Hauts-de-France", "Département": "Aisne", "Gazole_prix": 1.914, "SP98_prix": 1.983, "SP95_prix": 1.9185, "E85_prix": 1.1296666666666666, "E10_prix": 1.834, "GPLc_prix": null, "Latitude": 49.250737022420005, "Longitude": 3.0794196576266599, "Apparition": 5 }, "geometry": { "type": "Point", "coordinates": [ 3.07941965762666, 49.250737022420005 ] } },
{ "type": "Feature", "properties": { "cp_ville": "02620 Buironfosse", "Région": "Hauts-de-France", "Département": "Aisne", "Gazole_prix": 1.939, "SP98_prix": null, "SP95_prix": null, "E85_prix": null, "E10_prix": 1.989, "GPLc_prix": null, "Latitude": 49.9606036, "Longitude": 3.8238007, "Apparition": 1 }, "geometry": { "type": "Point", "coordinates": [ 3.8238007, 49.9606036 ] } },
{ "type": "Feature", "properties": { "cp_ville": "02690 Essigny-le-Grand", "Région": "Hauts-de-France", "Département": "Aisne", "Gazole_prix": 1.99, "SP98_prix": 1.99, "SP95_prix": null, "E85_prix": 1.249, "E10_prix": 1.99, "GPLc_prix": 1.054, "Latitude": 49.77752, "Longitude": 3.27799, "Apparition": 1 }, "geometry": { "type": "Point", "coordinates": [ 3.27799, 49.77752 ] } },
{ "type": "Feature", "properties": { "cp_ville": "02700 Condren", "Région": "Hauts-de-France", "Département": "Aisne", "Gazole_prix": 1.96, "SP98_prix": 1.99, "SP95_prix": null, "E85_prix": null, "E10_prix": 1.925, "GPLc_prix": null, "Latitude": 49.65, "Longitude": 3.28, "Apparition": 1 }, "geometry": { "type": "Point", "coordinates": [ 3.28, 49.65 ] } },
{ "type": "Feature", "properties": { "cp_ville": "02800 Beautor", "Région": "Hauts-de-France", "Département": "Aisne", "Gazole_prix": 1.754, "SP98_prix": 1.923, "SP95_prix": null, "E85_prix": 0.953, "E10_prix": 1.744, "GPLc_prix": null, "Latitude": 49.66, "Longitude": 3.346, "Apparition": 1 }, "geometry": { "type": "Point", "coordinates": [ 3.346, 49.66 ] } },
{ "type": "Feature", "properties": { "cp_ville": "02800 La Fère", "Région": "Hauts-de-France", "Département": "Aisne", "Gazole_prix": 1.999, "SP98_prix": 2.039, "SP95_prix": 1.999, "E85_prix": null, "E10_prix": null, "GPLc_prix": null, "Latitude": 49.66023, "Longitude": 3.37185, "Apparition": 1 }, "geometry": { "type": "Point", "coordinates": [ 3.37185, 49.66023 ] } },
{ "type": "Feature", "properties": { "cp_ville": "02820 Saint-Erme-Outre-et-Ramecourt", "Région": "Hauts-de-France", "Département": "Aisne", "Gazole_prix": 1.818, "SP98_prix": 1.899, "SP95_prix": null, "E85_prix": 0.999, "E10_prix": 1.784, "GPLc_prix": null, "Latitude": 49.531, "Longitude": 3.856, "Apparition": 1 }, "geometry": { "type": "Point", "coordinates": [ 3.856, 49.531 ] } },
{ "type": "Feature", "properties": { "cp_ville": "02860 Bruyères-et-Montbérault", "Région": "Hauts-de-France", "Département": "Aisne", "Gazole_prix": 1.964, "SP98_prix": 1.99, "SP95_prix": null, "E85_prix": null, "E10_prix": 1.925, "GPLc_prix": null, "Latitude": 49.532, "Longitude": 3.653, "Apparition": 1 }, "geometry": { "type": "Point", "coordinates": [ 3.653, 49.532 ] } },
{ "type": "Feature", "properties": { "cp_ville": "02870 Crépy", "Région": "Hauts-de-France", "Département": "Aisne", "Gazole_prix": 1.969, "SP98_prix": null, "SP95_prix": null, "E85_prix": null, "E10_prix": 1.999, "GPLc_prix": null, "Latitude": 49.609284191713002, "Longitude": 3.5052696871806002, "Apparition": 1 }, "geometry": { "type": "Point", "coordinates": [ 3.5052696871806, 49.609284191713002 ] } },
{ "type": "Feature", "properties": { "cp_ville": "02880 Crouy", "Région": "Hauts-de-France", "Département": "Aisne", "Gazole_prix": null, "SP98_prix": null, "SP95_prix": null, "E85_prix": null, "E10_prix": null, "GPLc_prix": null, "Latitude": 49.39825, "Longitude": 3.35632, "Apparition": 1 }, "geometry": { "type": "Point", "coordinates": [ 3.35632, 49.39825 ] } },
{ "type": "Feature", "properties": { "cp_ville": "03000 Avermes", "Région": "Auvergne-Rhône-Alpes", "Département": "Allier", "Gazole_prix": 1.859, "SP98_prix": 1.9445, "SP95_prix": 1.849, "E85_prix": 0.989, "E10_prix": 1.858, "GPLc_prix": 1.049, "Latitude": 46.593572331371327, "Longitude": 3.3138569048047, "Apparition": 3 }, "geometry": { "type": "Point", "coordinates": [ 3.3138569048047, 46.593572331371327 ] } },
{ "type": "Feature", "properties": { "cp_ville": "03000 Moulins", "Région": "Auvergne-Rhône-Alpes", "Département": "Allier", "Gazole_prix": 1.834, "SP98_prix": 1.899, "SP95_prix": 1.889, "E85_prix": 0.999, "E10_prix": 1.784, "GPLc_prix": null, "Latitude": 46.5515, "Longitude": 3.332, "Apparition": 2 }, "geometry": { "type": "Point", "coordinates": [ 3.332, 46.5515 ] } },
{ "type": "Feature", "properties": { "cp_ville": "03100 Montluçon", "Région": "Auvergne-Rhône-Alpes", "Département": "Allier", "Gazole_prix": 1.8624285714285715, "SP98_prix": 1.9248571428571428, "SP95_prix": 1.8375, "E85_prix": 0.998, "E10_prix": 1.8756, "GPLc_prix": null, "Latitude": 46.337874594246998, "Longitude": 2.5934346198211284, "Apparition": 7 }, "geometry": { "type": "Point", "coordinates": [ 2.593434619821128, 46.337874594246998 ] } },
{ "type": "Feature", "properties": { "cp_ville": "03110 Broût-Vernet", "Région": "Auvergne-Rhône-Alpes", "Département": "Allier", "Gazole_prix": 1.989, "SP98_prix": 2.095, "SP95_prix": null, "E85_prix": null, "E10_prix": 2.029, "GPLc_prix": null, "Latitude": 46.192, "Longitude": 3.265, "Apparition": 1 }, "geometry": { "type": "Point", "coordinates": [ 3.265, 46.192 ] } },
{ "type": "Feature", "properties": { "cp_ville": "03110 Charmeil", "Région": "Auvergne-Rhône-Alpes", "Département": "Allier", "Gazole_prix": 1.954, "SP98_prix": null, "SP95_prix": null, "E85_prix": null, "E10_prix": 1.932, "GPLc_prix": null, "Latitude": 46.155, "Longitude": 3.394, "Apparition": 1 }, "geometry": { "type": "Point", "coordinates": [ 3.394, 46.155 ] } },
{ "type": "Feature", "properties": { "cp_ville": "03120 Lapalisse", "Région": "Auvergne-Rhône-Alpes", "Département": "Allier", "Gazole_prix": 1.8984, "SP98_prix": 1.9654, "SP95_prix": 1.9075, "E85_prix": 1.0485, "E10_prix": 1.877, "GPLc_prix": null, "Latitude": 46.249313887930597, "Longitude": 3.6242804546044001, "Apparition": 5 }, "geometry": { "type": "Point", "coordinates": [ 3.6242804546044, 46.249313887930597 ] } },
{ "type": "Feature", "properties": { "cp_ville": "03130 Le Donjon", "Région": "Auvergne-Rhône-Alpes", "Département": "Allier", "Gazole_prix": 2.02, "SP98_prix": 2.12, "SP95_prix": 2.1, "E85_prix": null, "E10_prix": null, "GPLc_prix": null, "Latitude": 46.34868, "Longitude": 3.79313, "Apparition": 1 }, "geometry": { "type": "Point", "coordinates": [ 3.79313, 46.34868 ] } },
{ "type": "Feature", "properties": { "cp_ville": "03150 Varennes-sur-Allier", "Région": "Auvergne-Rhône-Alpes", "Département": "Allier", "Gazole_prix": 1.93675, "SP98_prix": 2.01175, "SP95_prix": 2.0125, "E85_prix": null, "E10_prix": 1.8955, "GPLc_prix": null, "Latitude": 46.321, "Longitude": 3.394, "Apparition": 4 }, "geometry": { "type": "Point", "coordinates": [ 3.394, 46.321 ] } },
{ "type": "Feature", "properties": { "cp_ville": "03160 Bourbon-l'Archambault", "Région": "Auvergne-Rhône-Alpes", "Département": "Allier", "Gazole_prix": 1.939, "SP98_prix": 2.025, "SP95_prix": 1.929, "E85_prix": null, "E10_prix": null, "GPLc_prix": null, "Latitude": 46.58333, "Longitude": 3.06336, "Apparition": 1 }, "geometry": { "type": "Point", "coordinates": [ 3.06336, 46.58333 ] } },
{ "type": "Feature", "properties": { "cp_ville": "03170 Doyet", "Région": "Auvergne-Rhône-Alpes", "Département": "Allier", "Gazole_prix": 2.029, "SP98_prix": 2.119, "SP95_prix": null, "E85_prix": null, "E10_prix": 2.019, "GPLc_prix": 1.083, "Latitude": 46.345505, "Longitude": 2.79859, "Apparition": 2 }, "geometry": { "type": "Point", "coordinates": [ 2.79859, 46.345505 ] } },
{ "type": "Feature", "properties": { "cp_ville": "03190 Vallon-en-Sully", "Région": "Auvergne-Rhône-Alpes", "Département": "Allier", "Gazole_prix": 1.949, "SP98_prix": 1.999, "SP95_prix": 1.949, "E85_prix": null, "E10_prix": null, "GPLc_prix": null, "Latitude": 46.531, "Longitude": 2.622, "Apparition": 1 }, "geometry": { "type": "Point", "coordinates": [ 2.622, 46.531 ] } },
{ "type": "Feature", "properties": { "cp_ville": "03200 Vichy", "Région": "Auvergne-Rhône-Alpes", "Département": "Allier", "Gazole_prix": 1.9356666666666669, "SP98_prix": 1.993, "SP95_prix": null, "E85_prix": null, "E10_prix": 1.9243333333333328, "GPLc_prix": null, "Latitude": 46.130046666666665, "Longitude": 3.4288966666666667, "Apparition": 3 }, "geometry": { "type": "Point", "coordinates": [ 3.428896666666667, 46.130046666666665 ] } },
{ "type": "Feature", "properties": { "cp_ville": "03210 Souvigny", "Région": "Auvergne-Rhône-Alpes", "Département": "Allier", "Gazole_prix": 1.999, "SP98_prix": null, "SP95_prix": 1.956, "E85_prix": null, "E10_prix": 1.925, "GPLc_prix": null, "Latitude": 46.536, "Longitude": 3.203, "Apparition": 1 }, "geometry": { "type": "Point", "coordinates": [ 3.203, 46.536 ] } },
{ "type": "Feature", "properties": { "cp_ville": "03240 Deux-Chaises", "Région": "Auvergne-Rhône-Alpes", "Département": "Allier", "Gazole_prix": 1.954, "SP98_prix": 1.99, "SP95_prix": null, "E85_prix": null, "E10_prix": 1.932, "GPLc_prix": null, "Latitude": 46.38, "Longitude": 3.04, "Apparition": 1 }, "geometry": { "type": "Point", "coordinates": [ 3.04, 46.38 ] } },
{ "type": "Feature", "properties": { "cp_ville": "03250 Le Mayet-de-Montagne", "Région": "Auvergne-Rhône-Alpes", "Département": "Allier", "Gazole_prix": 1.936, "SP98_prix": null, "SP95_prix": null, "E85_prix": null, "E10_prix": null, "GPLc_prix": null, "Latitude": 46.06849, "Longitude": 3.66341, "Apparition": 1 }, "geometry": { "type": "Point", "coordinates": [ 3.66341, 46.06849 ] } },
{ "type": "Feature", "properties": { "cp_ville": "03260 Saint-Germain-des-Fossés", "Région": "Auvergne-Rhône-Alpes", "Département": "Allier", "Gazole_prix": 1.879, "SP98_prix": null, "SP95_prix": null, "E85_prix": 0.998, "E10_prix": 1.829, "GPLc_prix": null, "Latitude": 46.205, "Longitude": 3.432, "Apparition": 1 }, "geometry": { "type": "Point", "coordinates": [ 3.432, 46.205 ] } },
{ "type": "Feature", "properties": { "cp_ville": "03270 Saint-Yorre", "Région": "Auvergne-Rhône-Alpes", "Département": "Allier", "Gazole_prix": 1.909, "SP98_prix": 1.899, "SP95_prix": 1.855, "E85_prix": null, "E10_prix": null, "GPLc_prix": null, "Latitude": 46.0545608, "Longitude": 3.47014954, "Apparition": 1 }, "geometry": { "type": "Point", "coordinates": [ 3.47014954, 46.0545608 ] } },
{ "type": "Feature", "properties": { "cp_ville": "03290 Dompierre-sur-Besbre", "Région": "Auvergne-Rhône-Alpes", "Département": "Allier", "Gazole_prix": 1.98, "SP98_prix": 2.0606666666666662, "SP95_prix": 2.0166666666666671, "E85_prix": null, "E10_prix": null, "GPLc_prix": null, "Latitude": 46.523, "Longitude": 3.6803333333333335, "Apparition": 3 }, "geometry": { "type": "Point", "coordinates": [ 3.680333333333333, 46.523 ] } },
{ "type": "Feature", "properties": { "cp_ville": "03300 Cusset", "Région": "Auvergne-Rhône-Alpes", "Département": "Allier", "Gazole_prix": 1.918, "SP98_prix": 1.975, "SP95_prix": 1.883, "E85_prix": 0.994, "E10_prix": 1.932, "GPLc_prix": null, "Latitude": 46.136145483333337, "Longitude": 3.45088925, "Apparition": 3 }, "geometry": { "type": "Point", "coordinates": [ 3.45088925, 46.136145483333337 ] } },
{ "type": "Feature", "properties": { "cp_ville": "03310 Néris-les-Bains", "Région": "Auvergne-Rhône-Alpes", "Département": "Allier", "Gazole_prix": 1.996, "SP98_prix": 2.02, "SP95_prix": 1.999, "E85_prix": null, "E10_prix": 1.963, "GPLc_prix": null, "Latitude": 46.283, "Longitude": 2.669, "Apparition": 1 }, "geometry": { "type": "Point", "coordinates": [ 2.669, 46.283 ] } },
{ "type": "Feature", "properties": { "cp_ville": "03320 Lurcy-Lévis", "Région": "Auvergne-Rhône-Alpes", "Département": "Allier", "Gazole_prix": 1.979, "SP98_prix": 2.099, "SP95_prix": 2.049, "E85_prix": null, "E10_prix": null, "GPLc_prix": null, "Latitude": 46.731, "Longitude": 2.938, "Apparition": 1 }, "geometry": { "type": "Point", "coordinates": [ 2.938, 46.731 ] } },
{ "type": "Feature", "properties": { "cp_ville": "03350 Cérilly", "Région": "Auvergne-Rhône-Alpes", "Département": "Allier", "Gazole_prix": 1.969, "SP98_prix": null, "SP95_prix": 1.999, "E85_prix": null, "E10_prix": null, "GPLc_prix": null, "Latitude": 46.61658854, "Longitude": 2.82206505, "Apparition": 1 }, "geometry": { "type": "Point", "coordinates": [ 2.82206505, 46.61658854 ] } },
{ "type": "Feature", "properties": { "cp_ville": "03360 Ainay-le-Château", "Région": "Auvergne-Rhône-Alpes", "Département": "Allier", "Gazole_prix": 1.935, "SP98_prix": null, "SP95_prix": 1.934, "E85_prix": null, "E10_prix": 1.894, "GPLc_prix": null, "Latitude": 46.705, "Longitude": 2.695, "Apparition": 1 }, "geometry": { "type": "Point", "coordinates": [ 2.695, 46.705 ] } },
{ "type": "Feature", "properties": { "cp_ville": "03380 Domérat", "Région": "Auvergne-Rhône-Alpes", "Département": "Allier", "Gazole_prix": 1.964, "SP98_prix": 1.99, "SP95_prix": null, "E85_prix": null, "E10_prix": 1.937, "GPLc_prix": null, "Latitude": 46.40600281, "Longitude": 2.52902817, "Apparition": 1 }, "geometry": { "type": "Point", "coordinates": [ 2.52902817, 46.40600281 ] } },
{ "type": "Feature", "properties": { "cp_ville": "03380 Huriel", "Région": "Auvergne-Rhône-Alpes", "Département": "Allier", "Gazole_prix": 1.925, "SP98_prix": 1.989, "SP95_prix": 1.949, "E85_prix": null, "E10_prix": null, "GPLc_prix": null, "Latitude": 46.372, "Longitude": 2.471, "Apparition": 1 }, "geometry": { "type": "Point", "coordinates": [ 2.471, 46.372 ] } },
{ "type": "Feature", "properties": { "cp_ville": "03390 Montmarault", "Région": "Auvergne-Rhône-Alpes", "Département": "Allier", "Gazole_prix": 1.929, "SP98_prix": 1.969, "SP95_prix": 1.869, "E85_prix": 1.259, "E10_prix": 1.959, "GPLc_prix": null, "Latitude": 46.3225, "Longitude": 2.9625, "Apparition": 2 }, "geometry": { "type": "Point", "coordinates": [ 2.9625, 46.3225 ] } },
{ "type": "Feature", "properties": { "cp_ville": "03400 Moulins", "Région": "Auvergne-Rhône-Alpes", "Département": "Allier", "Gazole_prix": 1.934, "SP98_prix": 1.99, "SP95_prix": null, "E85_prix": 0.994, "E10_prix": 1.937, "GPLc_prix": 0.986, "Latitude": 46.558, "Longitude": 3.335, "Apparition": 1 }, "geometry": { "type": "Point", "coordinates": [ 3.335, 46.558 ] } },
{ "type": "Feature", "properties": { "cp_ville": "03400 Toulon-sur-Allier", "Région": "Auvergne-Rhône-Alpes", "Département": "Allier", "Gazole_prix": 2.051, "SP98_prix": 2.109, "SP95_prix": null, "E85_prix": 1.288, "E10_prix": 1.973, "GPLc_prix": null, "Latitude": 46.5016935, "Longitude": 3.361861, "Apparition": 2 }, "geometry": { "type": "Point", "coordinates": [ 3.361861, 46.5016935 ] } },
{ "type": "Feature", "properties": { "cp_ville": "03400 Yzeure", "Région": "Auvergne-Rhône-Alpes", "Département": "Allier", "Gazole_prix": 1.944, "SP98_prix": 2.014, "SP95_prix": 1.959, "E85_prix": null, "E10_prix": null, "GPLc_prix": null, "Latitude": 46.56484695, "Longitude": 3.3548561074230498, "Apparition": 2 }, "geometry": { "type": "Point", "coordinates": [ 3.35485610742305, 46.56484695 ] } },
{ "type": "Feature", "properties": { "cp_ville": "03410 Domérat", "Région": "Auvergne-Rhône-Alpes", "Département": "Allier", "Gazole_prix": 1.905, "SP98_prix": 1.9503333333333333, "SP95_prix": 1.918, "E85_prix": null, "E10_prix": 1.8756666666666664, "GPLc_prix": 0.955, "Latitude": 46.35567, "Longitude": 2.55442, "Apparition": 3 }, "geometry": { "type": "Point", "coordinates": [ 2.55442, 46.35567 ] } },
{ "type": "Feature", "properties": { "cp_ville": "03410 Prémilhat", "Région": "Auvergne-Rhône-Alpes", "Département": "Allier", "Gazole_prix": 1.895, "SP98_prix": 1.93, "SP95_prix": 1.892, "E85_prix": null, "E10_prix": 1.822, "GPLc_prix": 0.959, "Latitude": 46.338, "Longitude": 2.567, "Apparition": 1 }, "geometry": { "type": "Point", "coordinates": [ 2.567, 46.338 ] } },
{ "type": "Feature", "properties": { "cp_ville": "03410 Saint-Victor", "Région": "Auvergne-Rhône-Alpes", "Département": "Allier", "Gazole_prix": 1.8805, "SP98_prix": 2.077, "SP95_prix": 1.925, "E85_prix": 1.015, "E10_prix": 1.777, "GPLc_prix": null, "Latitude": 46.3831688855525, "Longitude": 2.5992004427535003, "Apparition": 2 }, "geometry": { "type": "Point", "coordinates": [ 2.5992004427535, 46.3831688855525 ] } },
{ "type": "Feature", "properties": { "cp_ville": "03430 Cosne-d'Allier", "Région": "Auvergne-Rhône-Alpes", "Département": "Allier", "Gazole_prix": 1.846, "SP98_prix": 2.009, "SP95_prix": 1.828, "E85_prix": null, "E10_prix": null, "GPLc_prix": null, "Latitude": 46.474, "Longitude": 2.827, "Apparition": 1 }, "geometry": { "type": "Point", "coordinates": [ 2.827, 46.474 ] } },
{ "type": "Feature", "properties": { "cp_ville": "03450 Ébreuil", "Région": "Auvergne-Rhône-Alpes", "Département": "Allier", "Gazole_prix": 1.988, "SP98_prix": 2.058, "SP95_prix": null, "E85_prix": null, "E10_prix": 1.999, "GPLc_prix": null, "Latitude": 46.119, "Longitude": 3.094, "Apparition": 1 }, "geometry": { "type": "Point", "coordinates": [ 3.094, 46.119 ] } },
{ "type": "Feature", "properties": { "cp_ville": "03500 Saint-Pourçain-sur-Sioule", "Région": "Auvergne-Rhône-Alpes", "Département": "Allier", "Gazole_prix": 1.87975, "SP98_prix": 1.968, "SP95_prix": 1.899, "E85_prix": 0.999, "E10_prix": 1.8676666666666664, "GPLc_prix": 0.986, "Latitude": 46.301516405000001, "Longitude": 3.290905815, "Apparition": 4 }, "geometry": { "type": "Point", "coordinates": [ 3.290905815, 46.301516405 ] } },
{ "type": "Feature", "properties": { "cp_ville": "03500 Saulcet", "Région": "Auvergne-Rhône-Alpes", "Département": "Allier", "Gazole_prix": 2.045, "SP98_prix": 2.199, "SP95_prix": 2.156, "E85_prix": null, "E10_prix": null, "GPLc_prix": null, "Latitude": 46.338, "Longitude": 3.285, "Apparition": 1 }, "geometry": { "type": "Point", "coordinates": [ 3.285, 46.338 ] } },
{ "type": "Feature", "properties": { "cp_ville": "03600 Commentry", "Région": "Auvergne-Rhône-Alpes", "Département": "Allier", "Gazole_prix": 1.8983333333333332, "SP98_prix": 1.9326666666666668, "SP95_prix": 1.929, "E85_prix": 0.996, "E10_prix": 1.9045, "GPLc_prix": null, "Latitude": 46.291503333333331, "Longitude": 2.74164, "Apparition": 3 }, "geometry": { "type": "Point", "coordinates": [ 2.74164, 46.291503333333331 ] } },
{ "type": "Feature", "properties": { "cp_ville": "03630 Désertines", "Région": "Auvergne-Rhône-Alpes", "Département": "Allier", "Gazole_prix": 1.8715, "SP98_prix": 1.9075, "SP95_prix": 1.899, "E85_prix": null, "E10_prix": 1.802, "GPLc_prix": null, "Latitude": 46.35, "Longitude": 2.62, "Apparition": 2 }, "geometry": { "type": "Point", "coordinates": [ 2.62, 46.35 ] } },
{ "type": "Feature", "properties": { "cp_ville": "03700 Bellerive-sur-Allier", "Région": "Auvergne-Rhône-Alpes", "Département": "Allier", "Gazole_prix": 1.87, "SP98_prix": 1.908, "SP95_prix": null, "E85_prix": 0.9705, "E10_prix": 1.84, "GPLc_prix": null, "Latitude": 46.115815941199997, "Longitude": 3.4149123843550004, "Apparition": 2 }, "geometry": { "type": "Point", "coordinates": [ 3.414912384355, 46.115815941199997 ] } },
{ "type": "Feature", "properties": { "cp_ville": "03800 Gannat", "Région": "Auvergne-Rhône-Alpes", "Département": "Allier", "Gazole_prix": 1.9416, "SP98_prix": 1.9845, "SP95_prix": 1.985, "E85_prix": 0.996, "E10_prix": 1.89325, "GPLc_prix": 1.056, "Latitude": 46.094361950931592, "Longitude": 3.2028922968490798, "Apparition": 5 }, "geometry": { "type": "Point", "coordinates": [ 3.20289229684908, 46.094361950931592 ] } },
{ "type": "Feature", "properties": { "cp_ville": "04000 Digne-les-Bains", "Région": "Provence-Alpes-Côte d'Azur", "Département": "Alpes-de-Haute-Provence", "Gazole_prix": 1.907, "SP98_prix": 1.937, "SP95_prix": 1.949, "E85_prix": 0.977, "E10_prix": 1.8646666666666667, "GPLc_prix": 1.0265, "Latitude": 44.084533333333333, "Longitude": 6.2158266666666684, "Apparition": 3 }, "geometry": { "type": "Point", "coordinates": [ 6.215826666666668, 44.084533333333333 ] } },
{ "type": "Feature", "properties": { "cp_ville": "04100 Manosque", "Région": "Provence-Alpes-Côte d'Azur", "Département": "Alpes-de-Haute-Provence", "Gazole_prix": 1.8394285714285716, "SP98_prix": 1.884428571428572, "SP95_prix": 1.839, "E85_prix": 1.03675, "E10_prix": 1.8036666666666663, "GPLc_prix": 0.88166666666666671, "Latitude": 43.83087247983643, "Longitude": 5.7957954339753002, "Apparition": 7 }, "geometry": { "type": "Point", "coordinates": [ 5.7957954339753, 43.83087247983643 ] } },
{ "type": "Feature", "properties": { "cp_ville": "04120 Castellane", "Région": "Provence-Alpes-Côte d'Azur", "Département": "Alpes-de-Haute-Provence", "Gazole_prix": 2.0165, "SP98_prix": 2.027, "SP95_prix": null, "E85_prix": null, "E10_prix": 1.959, "GPLc_prix": null, "Latitude": 43.84903, "Longitude": 6.5101, "Apparition": 2 }, "geometry": { "type": "Point", "coordinates": [ 6.5101, 43.84903 ] } },
{ "type": "Feature", "properties": { "cp_ville": "04120 La Palud-sur-Verdon", "Région": "Provence-Alpes-Côte d'Azur", "Département": "Alpes-de-Haute-Provence", "Gazole_prix": 1.989, "SP98_prix": null, "SP95_prix": 2.039, "E85_prix": null, "E10_prix": null, "GPLc_prix": null, "Latitude": 43.78, "Longitude": 6.342, "Apparition": 1 }, "geometry": { "type": "Point", "coordinates": [ 6.342, 43.78 ] } },
{ "type": "Feature", "properties": { "cp_ville": "04130 La Brillanne", "Région": "Provence-Alpes-Côte d'Azur", "Département": "Alpes-de-Haute-Provence", "Gazole_prix": 1.99, "SP98_prix": null, "SP95_prix": null, "E85_prix": null, "E10_prix": 1.99, "GPLc_prix": null, "Latitude": 43.94225, "Longitude": 5.89247, "Apparition": 1 }, "geometry": { "type": "Point", "coordinates": [ 5.89247, 43.94225 ] } },
{ "type": "Feature", "properties": { "cp_ville": "04130 Volx", "Région": "Provence-Alpes-Côte d'Azur", "Département": "Alpes-de-Haute-Provence", "Gazole_prix": 1.99, "SP98_prix": null, "SP95_prix": null, "E85_prix": 1.249, "E10_prix": 1.99, "GPLc_prix": null, "Latitude": 43.842885752116999, "Longitude": 5.8514210224647991, "Apparition": 1 }, "geometry": { "type": "Point", "coordinates": [ 5.851421022464799, 43.842885752116999 ] } },
{ "type": "Feature", "properties": { "cp_ville": "04140 Seyne", "Région": "Provence-Alpes-Côte d'Azur", "Département": "Alpes-de-Haute-Provence", "Gazole_prix": 1.899, "SP98_prix": 1.979, "SP95_prix": null, "E85_prix": null, "E10_prix": 1.899, "GPLc_prix": null, "Latitude": 44.34, "Longitude": 6.379, "Apparition": 1 }, "geometry": { "type": "Point", "coordinates": [ 6.379, 44.34 ] } },
{ "type": "Feature", "properties": { "cp_ville": "04160 Château-Arnoux-Saint-Auban", "Région": "Provence-Alpes-Côte d'Azur", "Département": "Alpes-de-Haute-Provence", "Gazole_prix": 1.91475, "SP98_prix": 1.9993333333333332, "SP95_prix": 2.039, "E85_prix": 1.0065, "E10_prix": 1.886, "GPLc_prix": 0.999, "Latitude": 44.086, "Longitude": 6.00375, "Apparition": 4 }, "geometry": { "type": "Point", "coordinates": [ 6.00375, 44.086 ] } },
{ "type": "Feature", "properties": { "cp_ville": "04170 Saint-André-les-Alpes", "Région": "Provence-Alpes-Côte d'Azur", "Département": "Alpes-de-Haute-Provence", "Gazole_prix": 1.9675, "SP98_prix": 1.99, "SP95_prix": 1.99, "E85_prix": null, "E10_prix": 1.899, "GPLc_prix": null, "Latitude": 43.965885, "Longitude": 6.50677, "Apparition": 2 }, "geometry": { "type": "Point", "coordinates": [ 6.50677, 43.965885 ] } },
{ "type": "Feature", "properties": { "cp_ville": "04190 Les Mées", "Région": "Provence-Alpes-Côte d'Azur", "Département": "Alpes-de-Haute-Provence", "Gazole_prix": 1.939, "SP98_prix": 1.999, "SP95_prix": null, "E85_prix": 0.999, "E10_prix": 1.879, "GPLc_prix": null, "Latitude": 44.032, "Longitude": 5.972, "Apparition": 1 }, "geometry": { "type": "Point", "coordinates": [ 5.972, 44.032 ] } },
{ "type": "Feature", "properties": { "cp_ville": "04200 Aubignosc", "Région": "Provence-Alpes-Côte d'Azur", "Département": "Alpes-de-Haute-Provence", "Gazole_prix": 2.024, "SP98_prix": 2.104, "SP95_prix": null, "E85_prix": null, "E10_prix": 2.004, "GPLc_prix": 1.083, "Latitude": 44.133508652902002, "Longitude": 5.9775342421699005, "Apparition": 1 }, "geometry": { "type": "Point", "coordinates": [ 5.9775342421699, 44.133508652902002 ] } },
{ "type": "Feature", "properties": { "cp_ville": "04200 Peipin", "Région": "Provence-Alpes-Côte d'Azur", "Département": "Alpes-de-Haute-Provence", "Gazole_prix": 1.849, "SP98_prix": 1.879, "SP95_prix": null, "E85_prix": 0.998, "E10_prix": 1.799, "GPLc_prix": null, "Latitude": 44.14295, "Longitude": 5.95926, "Apparition": 1 }, "geometry": { "type": "Point", "coordinates": [ 5.95926, 44.14295 ] } },
{ "type": "Feature", "properties": { "cp_ville": "04200 Sisteron", "Région": "Provence-Alpes-Côte d'Azur", "Département": "Alpes-de-Haute-Provence", "Gazole_prix": 1.891, "SP98_prix": 1.9225, "SP95_prix": null, "E85_prix": 0.994, "E10_prix": 1.856, "GPLc_prix": null, "Latitude": 44.1925, "Longitude": 5.945, "Apparition": 2 }, "geometry": { "type": "Point", "coordinates": [ 5.945, 44.1925 ] } },
{ "type": "Feature", "properties": { "cp_ville": "04204 Sisteron", "Région": "Provence-Alpes-Côte d'Azur", "Département": "Alpes-de-Haute-Provence", "Gazole_prix": 1.844, "SP98_prix": 1.894, "SP95_prix": 1.874, "E85_prix": 0.999, "E10_prix": 1.799, "GPLc_prix": 0.999, "Latitude": 44.21258330405, "Longitude": 5.9303987988899998, "Apparition": 2 }, "geometry": { "type": "Point", "coordinates": [ 5.93039879889, 44.21258330405 ] } },
{ "type": "Feature", "properties": { "cp_ville": "04210 Valensole", "Région": "Provence-Alpes-Côte d'Azur", "Département": "Alpes-de-Haute-Provence", "Gazole_prix": 1.894, "SP98_prix": 1.95, "SP95_prix": 2.019, "E85_prix": null, "E10_prix": 1.84, "GPLc_prix": null, "Latitude": 43.835786906666669, "Longitude": 5.9800358266666684, "Apparition": 3 }, "geometry": { "type": "Point", "coordinates": [ 5.980035826666668, 43.835786906666669 ] } },
{ "type": "Feature", "properties": { "cp_ville": "04240 Annot", "Région": "Provence-Alpes-Côte d'Azur", "Département": "Alpes-de-Haute-Provence", "Gazole_prix": 1.926, "SP98_prix": null, "SP95_prix": 1.874, "E85_prix": null, "E10_prix": null, "GPLc_prix": null, "Latitude": 43.969, "Longitude": 6.668, "Apparition": 1 }, "geometry": { "type": "Point", "coordinates": [ 6.668, 43.969 ] } },
{ "type": "Feature", "properties": { "cp_ville": "04260 Allos", "Région": "Provence-Alpes-Côte d'Azur", "Département": "Alpes-de-Haute-Provence", "Gazole_prix": 2.02, "SP98_prix": 2.13, "SP95_prix": 2.03, "E85_prix": null, "E10_prix": null, "GPLc_prix": null, "Latitude": 44.26338, "Longitude": 6.64132, "Apparition": 1 }, "geometry": { "type": "Point", "coordinates": [ 6.64132, 44.26338 ] } },
{ "type": "Feature", "properties": { "cp_ville": "04280 Céreste", "Région": "Provence-Alpes-Côte d'Azur", "Département": "Alpes-de-Haute-Provence", "Gazole_prix": 1.82, "SP98_prix": 1.891, "SP95_prix": null, "E85_prix": null, "E10_prix": 1.813, "GPLc_prix": null, "Latitude": 43.858, "Longitude": 5.597, "Apparition": 1 }, "geometry": { "type": "Point", "coordinates": [ 5.597, 43.858 ] } },
{ "type": "Feature", "properties": { "cp_ville": "04300 Forcalquier", "Région": "Provence-Alpes-Côte d'Azur", "Département": "Alpes-de-Haute-Provence", "Gazole_prix": 1.944, "SP98_prix": 1.964, "SP95_prix": null, "E85_prix": 0.998, "E10_prix": 1.899, "GPLc_prix": null, "Latitude": 43.954585, "Longitude": 5.781645, "Apparition": 2 }, "geometry": { "type": "Point", "coordinates": [ 5.781645, 43.954585 ] } },
{ "type": "Feature", "properties": { "cp_ville": "04320 Entrevaux", "Région": "Provence-Alpes-Côte d'Azur", "Département": "Alpes-de-Haute-Provence", "Gazole_prix": 1.909, "SP98_prix": 1.954, "SP95_prix": null, "E85_prix": 0.998, "E10_prix": 1.889, "GPLc_prix": null, "Latitude": 43.957, "Longitude": 6.798, "Apparition": 2 }, "geometry": { "type": "Point", "coordinates": [ 6.798, 43.957 ] } },
{ "type": "Feature", "properties": { "cp_ville": "04330 Barrême", "Région": "Provence-Alpes-Côte d'Azur", "Département": "Alpes-de-Haute-Provence", "Gazole_prix": 1.964, "SP98_prix": 1.985, "SP95_prix": null, "E85_prix": 1.199, "E10_prix": 1.899, "GPLc_prix": null, "Latitude": 43.952, "Longitude": 6.366, "Apparition": 1 }, "geometry": { "type": "Point", "coordinates": [ 6.366, 43.952 ] } },
{ "type": "Feature", "properties": { "cp_ville": "04360 Moustiers-Sainte-Marie", "Région": "Provence-Alpes-Côte d'Azur", "Département": "Alpes-de-Haute-Provence", "Gazole_prix": 1.97, "SP98_prix": 1.99, "SP95_prix": 1.97, "E85_prix": null, "E10_prix": null, "GPLc_prix": null, "Latitude": 43.844, "Longitude": 6.215, "Apparition": 1 }, "geometry": { "type": "Point", "coordinates": [ 6.215, 43.844 ] } },
{ "type": "Feature", "properties": { "cp_ville": "04370 Villars-Colmars", "Région": "Provence-Alpes-Côte d'Azur", "Département": "Alpes-de-Haute-Provence", "Gazole_prix": 1.98, "SP98_prix": null, "SP95_prix": 1.99, "E85_prix": null, "E10_prix": null, "GPLc_prix": null, "Latitude": 44.1629, "Longitude": 6.60861, "Apparition": 1 }, "geometry": { "type": "Point", "coordinates": [ 6.60861, 44.1629 ] } },
{ "type": "Feature", "properties": { "cp_ville": "04400 Barcelonnette", "Région": "Provence-Alpes-Côte d'Azur", "Département": "Alpes-de-Haute-Provence", "Gazole_prix": 1.9476666666666669, "SP98_prix": 2.013, "SP95_prix": 1.966, "E85_prix": null, "E10_prix": 1.9355, "GPLc_prix": null, "Latitude": 44.387233873033352, "Longitude": 6.6550755396766661, "Apparition": 3 }, "geometry": { "type": "Point", "coordinates": [ 6.655075539676666, 44.387233873033352 ] } },
{ "type": "Feature", "properties": { "cp_ville": "04400 Saint-Pons", "Région": "Provence-Alpes-Côte d'Azur", "Département": "Alpes-de-Haute-Provence", "Gazole_prix": 1.949, "SP98_prix": 2.059, "SP95_prix": 1.977, "E85_prix": 1.289, "E10_prix": 1.947, "GPLc_prix": 1.069, "Latitude": 44.387, "Longitude": 6.629, "Apparition": 1 }, "geometry": { "type": "Point", "coordinates": [ 6.629, 44.387 ] } },
{ "type": "Feature", "properties": { "cp_ville": "04500 Riez", "Région": "Provence-Alpes-Côte d'Azur", "Département": "Alpes-de-Haute-Provence", "Gazole_prix": 1.9495, "SP98_prix": 1.922, "SP95_prix": 2.09, "E85_prix": 1.25, "E10_prix": 1.853, "GPLc_prix": null, "Latitude": 43.817543049033333, "Longitude": 6.0894556495233338, "Apparition": 3 }, "geometry": { "type": "Point", "coordinates": [ 6.089455649523334, 43.817543049033333 ] } },
{ "type": "Feature", "properties": { "cp_ville": "04510 Mallemoisson", "Région": "Provence-Alpes-Côte d'Azur", "Département": "Alpes-de-Haute-Provence", "Gazole_prix": 1.928, "SP98_prix": 1.998, "SP95_prix": 1.958, "E85_prix": null, "E10_prix": null, "GPLc_prix": null, "Latitude": 44.044, "Longitude": 6.13, "Apparition": 1 }, "geometry": { "type": "Point", "coordinates": [ 6.13, 44.044 ] } },
{ "type": "Feature", "properties": { "cp_ville": "04700 La Brillanne", "Région": "Provence-Alpes-Côte d'Azur", "Département": "Alpes-de-Haute-Provence", "Gazole_prix": 1.939, "SP98_prix": 2.059, "SP95_prix": 1.999, "E85_prix": 1.099, "E10_prix": 2.039, "GPLc_prix": null, "Latitude": 43.92768, "Longitude": 5.89091, "Apparition": 1 }, "geometry": { "type": "Point", "coordinates": [ 5.89091, 43.92768 ] } },
{ "type": "Feature", "properties": { "cp_ville": "04700 Oraison", "Région": "Provence-Alpes-Côte d'Azur", "Département": "Alpes-de-Haute-Provence", "Gazole_prix": 1.921, "SP98_prix": 1.9376666666666669, "SP95_prix": null, "E85_prix": 1.059, "E10_prix": 1.861, "GPLc_prix": null, "Latitude": 43.920051802077751, "Longitude": 5.9130681175209503, "Apparition": 4 }, "geometry": { "type": "Point", "coordinates": [ 5.91306811752095, 43.920051802077751 ] } },
{ "type": "Feature", "properties": { "cp_ville": "04800 Gréoux-les-Bains", "Région": "Provence-Alpes-Côte d'Azur", "Département": "Alpes-de-Haute-Provence", "Gazole_prix": 1.975, "SP98_prix": 1.99, "SP95_prix": null, "E85_prix": null, "E10_prix": 1.937, "GPLc_prix": null, "Latitude": 43.756, "Longitude": 5.887, "Apparition": 1 }, "geometry": { "type": "Point", "coordinates": [ 5.887, 43.756 ] } },
{ "type": "Feature", "properties": { "cp_ville": "05000 Gap", "Région": "Provence-Alpes-Côte d'Azur", "Département": "Hautes-Alpes", "Gazole_prix": 1.8602857142857143, "SP98_prix": 1.8928571428571428, "SP95_prix": null, "E85_prix": 1.014, "E10_prix": 1.8161428571428573, "GPLc_prix": 1.034, "Latitude": 44.554862857142858, "Longitude": 6.0769357142857148, "Apparition": 7 }, "geometry": { "type": "Point", "coordinates": [ 6.076935714285715, 44.554862857142858 ] } },
{ "type": "Feature", "properties": { "cp_ville": "05100 Briançon", "Région": "Provence-Alpes-Côte d'Azur", "Département": "Hautes-Alpes", "Gazole_prix": 1.87, "SP98_prix": 1.928, "SP95_prix": 1.93, "E85_prix": 1.059, "E10_prix": 1.832, "GPLc_prix": 1.004, "Latitude": 44.901359164296998, "Longitude": 6.6315429289043006, "Apparition": 2 }, "geometry": { "type": "Point", "coordinates": [ 6.631542928904301, 44.901359164296998 ] } },
{ "type": "Feature", "properties": { "cp_ville": "05100 Montgenèvre", "Région": "Provence-Alpes-Côte d'Azur", "Département": "Hautes-Alpes", "Gazole_prix": 1.869, "SP98_prix": 1.927, "SP95_prix": null, "E85_prix": 1.058, "E10_prix": 1.87, "GPLc_prix": null, "Latitude": 44.934, "Longitude": 6.733, "Apparition": 1 }, "geometry": { "type": "Point", "coordinates": [ 6.733, 44.934 ] } },
{ "type": "Feature", "properties": { "cp_ville": "05120 L'Argentière-la-Bessée", "Région": "Provence-Alpes-Côte d'Azur", "Département": "Hautes-Alpes", "Gazole_prix": 1.899, "SP98_prix": null, "SP95_prix": 1.919, "E85_prix": null, "E10_prix": 1.869, "GPLc_prix": null, "Latitude": 44.792932035900002, "Longitude": 6.5597468592499997, "Apparition": 1 }, "geometry": { "type": "Point", "coordinates": [ 6.55974685925, 44.792932035900002 ] } },
{ "type": "Feature", "properties": { "cp_ville": "05120 Saint-Martin-de-Queyrières", "Région": "Provence-Alpes-Côte d'Azur", "Département": "Hautes-Alpes", "Gazole_prix": 1.869, "SP98_prix": null, "SP95_prix": 1.93, "E85_prix": null, "E10_prix": 1.87, "GPLc_prix": null, "Latitude": 44.853, "Longitude": 6.582, "Apparition": 1 }, "geometry": { "type": "Point", "coordinates": [ 6.582, 44.853 ] } },
{ "type": "Feature", "properties": { "cp_ville": "05130 Tallard", "Région": "Provence-Alpes-Côte d'Azur", "Département": "Hautes-Alpes", "Gazole_prix": 1.894, "SP98_prix": 1.894, "SP95_prix": null, "E85_prix": 0.999, "E10_prix": 1.814, "GPLc_prix": null, "Latitude": 44.458626545342334, "Longitude": 6.045046402119933, "Apparition": 3 }, "geometry": { "type": "Point", "coordinates": [ 6.045046402119933, 44.458626545342334 ] } },
{ "type": "Feature", "properties": { "cp_ville": "05160 Savines-le-Lac", "Région": "Provence-Alpes-Côte d'Azur", "Département": "Hautes-Alpes", "Gazole_prix": 1.84, "SP98_prix": 1.897, "SP95_prix": null, "E85_prix": null, "E10_prix": 1.799, "GPLc_prix": null, "Latitude": 44.525, "Longitude": 6.408, "Apparition": 1 }, "geometry": { "type": "Point", "coordinates": [ 6.408, 44.525 ] } },
{ "type": "Feature", "properties": { "cp_ville": "05190 Remollon", "Région": "Provence-Alpes-Côte d'Azur", "Département": "Hautes-Alpes", "Gazole_prix": 1.869, "SP98_prix": 1.899, "SP95_prix": null, "E85_prix": 0.999, "E10_prix": 1.799, "GPLc_prix": 0.999, "Latitude": 44.4675, "Longitude": 6.179, "Apparition": 2 }, "geometry": { "type": "Point", "coordinates": [ 6.179, 44.4675 ] } },
{ "type": "Feature", "properties": { "cp_ville": "05200 Baratier", "Région": "Provence-Alpes-Côte d'Azur", "Département": "Hautes-Alpes", "Gazole_prix": 1.8795, "SP98_prix": 1.938, "SP95_prix": null, "E85_prix": 0.998, "E10_prix": 1.855, "GPLc_prix": 1.19, "Latitude": 44.5407879, "Longitude": 6.490012, "Apparition": 3 }, "geometry": { "type": "Point", "coordinates": [ 6.490012, 44.5407879 ] } },
{ "type": "Feature", "properties": { "cp_ville": "05200 Embrun", "Région": "Provence-Alpes-Côte d'Azur", "Département": "Hautes-Alpes", "Gazole_prix": 1.8875, "SP98_prix": 1.948, "SP95_prix": 1.892, "E85_prix": 0.978, "E10_prix": 1.799, "GPLc_prix": null, "Latitude": 44.5555, "Longitude": 6.488, "Apparition": 2 }, "geometry": { "type": "Point", "coordinates": [ 6.488, 44.5555 ] } },
{ "type": "Feature", "properties": { "cp_ville": "05220 Le Monêtier-les-Bains", "Région": "Provence-Alpes-Côte d'Azur", "Département": "Hautes-Alpes", "Gazole_prix": 1.869, "SP98_prix": null, "SP95_prix": 1.93, "E85_prix": null, "E10_prix": 1.87, "GPLc_prix": null, "Latitude": 44.972, "Longitude": 6.519, "Apparition": 1 }, "geometry": { "type": "Point", "coordinates": [ 6.519, 44.972 ] } },
{ "type": "Feature", "properties": { "cp_ville": "05230 Chorges", "Région": "Provence-Alpes-Côte d'Azur", "Département": "Hautes-Alpes", "Gazole_prix": 1.8463333333333327, "SP98_prix": 1.887, "SP95_prix": null, "E85_prix": 0.9965, "E10_prix": 1.8073333333333332, "GPLc_prix": null, "Latitude": 44.550406459702657, "Longitude": 6.2602169453009999, "Apparition": 3 }, "geometry": { "type": "Point", "coordinates": [ 6.260216945301, 44.550406459702657 ] } },
{ "type": "Feature", "properties": { "cp_ville": "05230 La Bâtie-Neuve", "Région": "Provence-Alpes-Côte d'Azur", "Département": "Hautes-Alpes", "Gazole_prix": 1.81, "SP98_prix": null, "SP95_prix": 1.99, "E85_prix": null, "E10_prix": null, "GPLc_prix": null, "Latitude": 44.567, "Longitude": 6.195, "Apparition": 1 }, "geometry": { "type": "Point", "coordinates": [ 6.195, 44.567 ] } },
{ "type": "Feature", "properties": { "cp_ville": "05240 La Salle-les-Alpes", "Région": "Provence-Alpes-Côte d'Azur", "Département": "Hautes-Alpes", "Gazole_prix": 1.985, "SP98_prix": 2.245, "SP95_prix": 2.064, "E85_prix": null, "E10_prix": null, "GPLc_prix": null, "Latitude": 44.942, "Longitude": 6.569, "Apparition": 1 }, "geometry": { "type": "Point", "coordinates": [ 6.569, 44.942 ] } },
{ "type": "Feature", "properties": { "cp_ville": "05260 Chabottes", "Région": "Provence-Alpes-Côte d'Azur", "Département": "Hautes-Alpes", "Gazole_prix": 1.979, "SP98_prix": 1.99, "SP95_prix": null, "E85_prix": null, "E10_prix": 1.979, "GPLc_prix": null, "Latitude": 44.64668, "Longitude": 6.18157, "Apparition": 1 }, "geometry": { "type": "Point", "coordinates": [ 6.18157, 44.64668 ] } },
{ "type": "Feature", "properties": { "cp_ville": "05260 Forest-Saint-Julien", "Région": "Provence-Alpes-Côte d'Azur", "Département": "Hautes-Alpes", "Gazole_prix": 1.92, "SP98_prix": 1.97, "SP95_prix": 1.95, "E85_prix": null, "E10_prix": null, "GPLc_prix": null, "Latitude": 44.643941, "Longitude": 6.136964, "Apparition": 1 }, "geometry": { "type": "Point", "coordinates": [ 6.136964, 44.643941 ] } },
{ "type": "Feature", "properties": { "cp_ville": "05300 Garde-Colombe", "Région": "Provence-Alpes-Côte d'Azur", "Département": "Hautes-Alpes", "Gazole_prix": 1.909, "SP98_prix": null, "SP95_prix": null, "E85_prix": null, "E10_prix": 2.042, "GPLc_prix": null, "Latitude": 44.34606, "Longitude": 5.77102, "Apparition": 1 }, "geometry": { "type": "Point", "coordinates": [ 5.77102, 44.34606 ] } },
{ "type": "Feature", "properties": { "cp_ville": "05300 Laragne-Montéglin", "Région": "Provence-Alpes-Côte d'Azur", "Département": "Hautes-Alpes", "Gazole_prix": 1.9166666666666667, "SP98_prix": 1.9895, "SP95_prix": null, "E85_prix": 1.029, "E10_prix": 1.9073333333333331, "GPLc_prix": null, "Latitude": 44.31133333333333, "Longitude": 5.8293333333333335, "Apparition": 3 }, "geometry": { "type": "Point", "coordinates": [ 5.829333333333333, 44.31133333333333 ] } },
{ "type": "Feature", "properties": { "cp_ville": "05350 Château-Ville-Vieille", "Région": "Provence-Alpes-Côte d'Azur", "Département": "Hautes-Alpes", "Gazole_prix": 2.03, "SP98_prix": 2.11, "SP95_prix": 2.09, "E85_prix": null, "E10_prix": null, "GPLc_prix": null, "Latitude": 44.7591968, "Longitude": 6.8077496, "Apparition": 1 }, "geometry": { "type": "Point", "coordinates": [ 6.8077496, 44.7591968 ] } },
{ "type": "Feature", "properties": { "cp_ville": "05400 Veynes", "Région": "Provence-Alpes-Côte d'Azur", "Département": "Hautes-Alpes", "Gazole_prix": 1.8523333333333332, "SP98_prix": 1.919, "SP95_prix": 1.889, "E85_prix": 1.009, "E10_prix": 1.814, "GPLc_prix": null, "Latitude": 44.536889433333336, "Longitude": 5.833787, "Apparition": 3 }, "geometry": { "type": "Point", "coordinates": [ 5.833787, 44.536889433333336 ] } },
{ "type": "Feature", "properties": { "cp_ville": "05500 La Fare-en-Champsaur", "Région": "Provence-Alpes-Côte d'Azur", "Département": "Hautes-Alpes", "Gazole_prix": 1.879, "SP98_prix": null, "SP95_prix": 1.919, "E85_prix": null, "E10_prix": 1.819, "GPLc_prix": null, "Latitude": 44.672983511299996, "Longitude": 6.0736685408, "Apparition": 1 }, "geometry": { "type": "Point", "coordinates": [ 6.0736685408, 44.672983511299996 ] } },
{ "type": "Feature", "properties": { "cp_ville": "05500 Saint-Bonnet-en-Champsaur", "Région": "Provence-Alpes-Côte d'Azur", "Département": "Hautes-Alpes", "Gazole_prix": 1.919, "SP98_prix": null, "SP95_prix": 1.969, "E85_prix": null, "E10_prix": null, "GPLc_prix": null, "Latitude": 44.675773217150997, "Longitude": 6.0758924850751006, "Apparition": 1 }, "geometry": { "type": "Point", "coordinates": [ 6.075892485075101, 44.675773217150997 ] } },
{ "type": "Feature", "properties": { "cp_ville": "05560 Vars", "Région": "Provence-Alpes-Côte d'Azur", "Département": "Hautes-Alpes", "Gazole_prix": 2.039, "SP98_prix": 2.159, "SP95_prix": 2.109, "E85_prix": null, "E10_prix": null, "GPLc_prix": null, "Latitude": 44.6075, "Longitude": 6.6885, "Apparition": 2 }, "geometry": { "type": "Point", "coordinates": [ 6.6885, 44.6075 ] } },
{ "type": "Feature", "properties": { "cp_ville": "05600 Eygliers", "Région": "Provence-Alpes-Côte d'Azur", "Département": "Hautes-Alpes", "Gazole_prix": 1.899, "SP98_prix": 1.949, "SP95_prix": 1.919, "E85_prix": null, "E10_prix": 1.869, "GPLc_prix": null, "Latitude": 44.672, "Longitude": 6.618, "Apparition": 1 }, "geometry": { "type": "Point", "coordinates": [ 6.618, 44.672 ] } },
{ "type": "Feature", "properties": { "cp_ville": "05600 Guillestre", "Région": "Provence-Alpes-Côte d'Azur", "Département": "Hautes-Alpes", "Gazole_prix": 1.899, "SP98_prix": 1.923, "SP95_prix": 1.8975, "E85_prix": null, "E10_prix": 1.844, "GPLc_prix": null, "Latitude": 44.658485, "Longitude": 6.63623, "Apparition": 2 }, "geometry": { "type": "Point", "coordinates": [ 6.63623, 44.658485 ] } },
{ "type": "Feature", "properties": { "cp_ville": "05600 Saint-Clément-sur-Durance", "Région": "Provence-Alpes-Côte d'Azur", "Département": "Hautes-Alpes", "Gazole_prix": null, "SP98_prix": null, "SP95_prix": null, "E85_prix": null, "E10_prix": null, "GPLc_prix": null, "Latitude": 44.651756108157997, "Longitude": 6.5873162517587005, "Apparition": 1 }, "geometry": { "type": "Point", "coordinates": [ 6.587316251758701, 44.651756108157997 ] } },
{ "type": "Feature", "properties": { "cp_ville": "05700 Serres", "Région": "Provence-Alpes-Côte d'Azur", "Département": "Hautes-Alpes", "Gazole_prix": 1.909, "SP98_prix": 1.985, "SP95_prix": 1.932, "E85_prix": null, "E10_prix": 1.879, "GPLc_prix": null, "Latitude": 44.431347989400003, "Longitude": 5.7149279670449999, "Apparition": 2 }, "geometry": { "type": "Point", "coordinates": [ 5.714927967045, 44.431347989400003 ] } },
{ "type": "Feature", "properties": { "cp_ville": "06000 Nice", "Région": "Provence-Alpes-Côte d'Azur", "Département": "Alpes-Maritimes", "Gazole_prix": 1.9521666666666668, "SP98_prix": 2.0126666666666666, "SP95_prix": null, "E85_prix": 1.229, "E10_prix": 1.9226666666666663, "GPLc_prix": null, "Latitude": 43.71347595, "Longitude": 7.2627878666666668, "Apparition": 6 }, "geometry": { "type": "Point", "coordinates": [ 7.262787866666667, 43.71347595 ] } },
{ "type": "Feature", "properties": { "cp_ville": "06100 Nice", "Région": "Provence-Alpes-Côte d'Azur", "Département": "Alpes-Maritimes", "Gazole_prix": 1.989, "SP98_prix": 2.149, "SP95_prix": null, "E85_prix": null, "E10_prix": 2.049, "GPLc_prix": null, "Latitude": 43.72385, "Longitude": 7.25579, "Apparition": 1 }, "geometry": { "type": "Point", "coordinates": [ 7.25579, 43.72385 ] } },
{ "type": "Feature", "properties": { "cp_ville": "06110 Le Cannet", "Région": "Provence-Alpes-Côte d'Azur", "Département": "Alpes-Maritimes", "Gazole_prix": 1.8712, "SP98_prix": 1.933, "SP95_prix": 1.789, "E85_prix": 1.124, "E10_prix": 1.8304, "GPLc_prix": null, "Latitude": 43.570155606379998, "Longitude": 6.9983422511300004, "Apparition": 5 }, "geometry": { "type": "Point", "coordinates": [ 6.99834225113, 43.570155606379998 ] } },
{ "type": "Feature", "properties": { "cp_ville": "06110 Mougins", "Région": "Provence-Alpes-Côte d'Azur", "Département": "Alpes-Maritimes", "Gazole_prix": 1.965, "SP98_prix": 2.069, "SP95_prix": null, "E85_prix": 1.143, "E10_prix": 1.999, "GPLc_prix": null, "Latitude": 43.581, "Longitude": 7.007, "Apparition": 1 }, "geometry": { "type": "Point", "coordinates": [ 7.007, 43.581 ] } },
{ "type": "Feature", "properties": { "cp_ville": "06130 Grasse", "Région": "Provence-Alpes-Côte d'Azur", "Département": "Alpes-Maritimes", "Gazole_prix": 1.8921428571428571, "SP98_prix": 1.9301428571428572, "SP95_prix": null, "E85_prix": 0.9775, "E10_prix": 1.844, "GPLc_prix": 0.966, "Latitude": 43.643569101938724, "Longitude": 6.9418539428790567, "Apparition": 7 }, "geometry": { "type": "Point", "coordinates": [ 6.941853942879057, 43.643569101938724 ] } },
{ "type": "Feature", "properties": { "cp_ville": "06140 Vence", "Région": "Provence-Alpes-Côte d'Azur", "Département": "Alpes-Maritimes", "Gazole_prix": 1.973, "SP98_prix": 1.9945, "SP95_prix": null, "E85_prix": null, "E10_prix": 1.942, "GPLc_prix": 0.994, "Latitude": 43.720105689961997, "Longitude": 7.1066830633224498, "Apparition": 2 }, "geometry": { "type": "Point", "coordinates": [ 7.10668306332245, 43.720105689961997 ] } },
{ "type": "Feature", "properties": { "cp_ville": "06150 Cannes", "Région": "Provence-Alpes-Côte d'Azur", "Département": "Alpes-Maritimes", "Gazole_prix": 1.8838333333333332, "SP98_prix": 1.9668, "SP95_prix": null, "E85_prix": 1.01475, "E10_prix": 1.8543333333333327, "GPLc_prix": 0.999, "Latitude": 43.556788967328508, "Longitude": 6.9692971993694668, "Apparition": 6 }, "geometry": { "type": "Point", "coordinates": [ 6.969297199369467, 43.556788967328508 ] } },
{ "type": "Feature", "properties": { "cp_ville": "06160 Antibes", "Région": "Provence-Alpes-Côte d'Azur", "Département": "Alpes-Maritimes", "Gazole_prix": 1.914, "SP98_prix": 1.969, "SP95_prix": null, "E85_prix": 1.129, "E10_prix": 1.849, "GPLc_prix": null, "Latitude": 43.575876831006497, "Longitude": 7.1063258779487999, "Apparition": 2 }, "geometry": { "type": "Point", "coordinates": [ 7.1063258779488, 43.575876831006497 ] } },
{ "type": "Feature", "properties": { "cp_ville": "06190 Roquebrune-Cap-Martin", "Région": "Provence-Alpes-Côte d'Azur", "Département": "Alpes-Maritimes", "Gazole_prix": 1.9496666666666669, "SP98_prix": 2.006, "SP95_prix": null, "E85_prix": 1.0615, "E10_prix": 1.9256666666666664, "GPLc_prix": null, "Latitude": 43.763429474071003, "Longitude": 7.4727548925943665, "Apparition": 3 }, "geometry": { "type": "Point", "coordinates": [ 7.472754892594367, 43.763429474071003 ] } },
{ "type": "Feature", "properties": { "cp_ville": "06200 Nice", "Région": "Provence-Alpes-Côte d'Azur", "Département": "Alpes-Maritimes", "Gazole_prix": 1.8792727272727276, "SP98_prix": 1.9121111111111111, "SP95_prix": 1.88, "E85_prix": 1.1493333333333331, "E10_prix": 1.833, "GPLc_prix": 0.96766666666666679, "Latitude": 43.693059503167731, "Longitude": 7.2115392573226647, "Apparition": 11 }, "geometry": { "type": "Point", "coordinates": [ 7.211539257322665, 43.693059503167731 ] } },
{ "type": "Feature", "properties": { "cp_ville": "06210 Mandelieu-la-Napoule", "Région": "Provence-Alpes-Côte d'Azur", "Département": "Alpes-Maritimes", "Gazole_prix": 1.899, "SP98_prix": 1.9645, "SP95_prix": null, "E85_prix": 1.049, "E10_prix": 1.87, "GPLc_prix": 0.979, "Latitude": 43.5279, "Longitude": 6.91653, "Apparition": 2 }, "geometry": { "type": "Point", "coordinates": [ 6.91653, 43.5279 ] } },
{ "type": "Feature", "properties": { "cp_ville": "06220 Vallauris", "Région": "Provence-Alpes-Côte d'Azur", "Département": "Alpes-Maritimes", "Gazole_prix": 1.8803333333333332, "SP98_prix": 1.9176666666666664, "SP95_prix": null, "E85_prix": 0.9835, "E10_prix": 1.8343333333333331, "GPLc_prix": null, "Latitude": 43.580893333333336, "Longitude": 7.05528, "Apparition": 3 }, "geometry": { "type": "Point", "coordinates": [ 7.05528, 43.580893333333336 ] } },
{ "type": "Feature", "properties": { "cp_ville": "06230 Nice", "Région": "Provence-Alpes-Côte d'Azur", "Département": "Alpes-Maritimes", "Gazole_prix": 1.879, "SP98_prix": 1.929, "SP95_prix": null, "E85_prix": null, "E10_prix": 1.849, "GPLc_prix": null, "Latitude": 43.706, "Longitude": 7.301, "Apparition": 1 }, "geometry": { "type": "Point", "coordinates": [ 7.301, 43.706 ] } },
{ "type": "Feature", "properties": { "cp_ville": "06230 Villefranche-sur-Mer", "Région": "Provence-Alpes-Côte d'Azur", "Département": "Alpes-Maritimes", "Gazole_prix": 1.967, "SP98_prix": null, "SP95_prix": null, "E85_prix": null, "E10_prix": 1.945, "GPLc_prix": null, "Latitude": 43.70556, "Longitude": 7.32039, "Apparition": 1 }, "geometry": { "type": "Point", "coordinates": [ 7.32039, 43.70556 ] } },
{ "type": "Feature", "properties": { "cp_ville": "06240 Beausoleil", "Région": "Provence-Alpes-Côte d'Azur", "Département": "Alpes-Maritimes", "Gazole_prix": 1.9695, "SP98_prix": 1.9945, "SP95_prix": 1.939, "E85_prix": null, "E10_prix": 1.99, "GPLc_prix": 1.031, "Latitude": 43.747384053748, "Longitude": 7.4248083904907993, "Apparition": 2 }, "geometry": { "type": "Point", "coordinates": [ 7.424808390490799, 43.747384053748 ] } },
{ "type": "Feature", "properties": { "cp_ville": "06250 Le Cannet", "Région": "Provence-Alpes-Côte d'Azur", "Département": "Alpes-Maritimes", "Gazole_prix": 1.99, "SP98_prix": 1.99, "SP95_prix": null, "E85_prix": 1.249, "E10_prix": 1.99, "GPLc_prix": 1.054, "Latitude": 43.584, "Longitude": 7.025, "Apparition": 1 }, "geometry": { "type": "Point", "coordinates": [ 7.025, 43.584 ] } },
{ "type": "Feature", "properties": { "cp_ville": "06250 Mougins", "Région": "Provence-Alpes-Côte d'Azur", "Département": "Alpes-Maritimes", "Gazole_prix": 1.89525, "SP98_prix": 1.9665, "SP95_prix": null, "E85_prix": 1.114, "E10_prix": 1.869, "GPLc_prix": null, "Latitude": 43.591199210433501, "Longitude": 7.0041610077248748, "Apparition": 4 }, "geometry": { "type": "Point", "coordinates": [ 7.004161007724875, 43.591199210433501 ] } },
{ "type": "Feature", "properties": { "cp_ville": "06260 Puget-Théniers", "Région": "Provence-Alpes-Côte d'Azur", "Département": "Alpes-Maritimes", "Gazole_prix": 1.864, "SP98_prix": 1.8945, "SP95_prix": 1.789, "E85_prix": null, "E10_prix": 1.926, "GPLc_prix": null, "Latitude": 43.955372569731502, "Longitude": 6.8921555093949998, "Apparition": 2 }, "geometry": { "type": "Point", "coordinates": [ 6.892155509395, 43.955372569731502 ] } },
{ "type": "Feature", "properties": { "cp_ville": "06270 Villeneuve-Loubet", "Région": "Provence-Alpes-Côte d'Azur", "Département": "Alpes-Maritimes", "Gazole_prix": 1.8805, "SP98_prix": 1.891, "SP95_prix": null, "E85_prix": null, "E10_prix": 1.8365, "GPLc_prix": 0.949, "Latitude": 43.634450382087998, "Longitude": 7.1362995452412008, "Apparition": 2 }, "geometry": { "type": "Point", "coordinates": [ 7.136299545241201, 43.634450382087998 ] } },
{ "type": "Feature", "properties": { "cp_ville": "06300 Nice", "Région": "Provence-Alpes-Côte d'Azur", "Département": "Alpes-Maritimes", "Gazole_prix": 1.9375, "SP98_prix": 1.9634, "SP95_prix": 1.99, "E85_prix": null, "E10_prix": 1.9243333333333328, "GPLc_prix": 1.034, "Latitude": 43.711333333333336, "Longitude": 7.2906666666666666, "Apparition": 6 }, "geometry": { "type": "Point", "coordinates": [ 7.290666666666667, 43.711333333333336 ] } },